Name,Url,Telephone,Longitude,Latitude,AddressRegion,AddressLocality,AddressCountry,Tags,Price_EUR,Tag_Region,Rating,Unit,Section,ComplexList
Hideaway Camping and Caravan Park,,+353(0)2822254,-9.260331,51.541699,Cork,Skibbereen,Republic of Ireland,Camping,653,Camping_Cork,3,Blk,37,"[7, 1, 6]"
Clonvilla,,+353(0)2498288,-7.924324,51.91066,Cork,Youghal,Republic of Ireland,Camping,1065,Camping_Cork,1,Lot,95,"[9, 1, 4, 9]"
Rosses Point Caravan Park (Greenlands),http://www.sligocaravanandcamping.ie,+353(0)719177113,-8.569483,54.306976,Sligo,Rosses Point,Republic of Ireland,Camping,993,Camping_Sligo,2,Zone,60,"[6, 1, 7]"
Strandhill Caravan and Camping Park,http://www.sligocaravanandcamping.ie,+353(0)719168111,-8.605472,54.271988,Sligo,Airport Road,Republic of Ireland,Camping,863,Camping_Sligo,2,Sect,61,"[5, 8, 6]"
Caseys Caravan Park,http://www.caseyscaravanpark.com,+353(0)749155376,-7.837826,55.195124,Donegal,Downings,Republic of Ireland,Camping,860,Camping_Donegal,3,Zone,35,"[1, 3, 8]"
Flemings White Bridge Caravan and Camping,http://www.killarneycamping.com,+353(0)646631590,-9.475904065,52.05711322,Kerry,Killarney,Republic of Ireland,Camping,1116,Camping_Kerry,3,Zone,38,"[6, 4]"
Fossa Caravan and Camping Park,http://www.fossacampingkillarney.com,+353(0)646631497,-9.585609,52.070824,Kerry,Fossa,Republic of Ireland,Camping,651,Camping_Kerry,3,Sect,68,"[7, 3, 2]"
Streamstown Caravan & Camping Park,http://www.tipperarycaravanpark.com,35350521519,-7.8393265,52.957265,Tipperary,Roscrea,Ireland,Camping,1019,Camping_Tipperary,1,Div,4,"[7, 8, 6, 6]"
Roundwood Caravan and Camping Park,http://www.dublinwicklowcamping.com,35312818163,-6.222318767,53.06909915,Wicklow,Roundwood,Republic of Ireland,Camping,721,Camping_Wicklow,2,Lot,24,"[2, 2, 4, 6, 6]"
Eagle Point Camping,http://www.eaglepointcamping.com,+353(0)2750630,-9.453848,51.719186,Cork,Ballylickey,Republic of Ireland,Camping,656,Camping_Cork,4,Blk,60,"[7, 3]"
Newtown Cove Caravan and Camping Park,https://www.facebook.com/pages/Newtown-Cove-Caravan-Park-Tramore/214205415369614,+353(0)51381979,-7.172576,52.147718,Waterford,Tramore,Republic of Ireland,Camping,916,Camping_Waterford,1,Lot,62,"[7, 9, 6, 5, 1]"
O'Sheas Caravan and Camping Park,,+353(0)2763140,-9.543672,51.750909,Cork,Glengarriff,Republic of Ireland,Camping,1186,Camping_Cork,2,Sect,10,"[8, 3, 0]"
Ballinacourty House,http://www.camping.ie,+353(0)6256000,-8.209861,52.41631,Tipperary,Glen Of Aherlow,Republic of Ireland,Camping,1042,Camping_Tipperary,5,Blk,78,"[5, 6]"
Creveen Lodge Caravan and Camping Park,http://www.creveenlodge.com,+353(0)646683131,-9.760142,51.755089,Kerry,Lauragh,Republic of Ireland,Camping,1057,Camping_Kerry,1,Lot,54,"[9, 5, 5, 8, 0]"
Mannix Point Camping and Caravan Park,http://www.campinginkerry.com,+353(0)669472806,-10.24526,51.941941,Kerry,,Republic of Ireland,Camping,1031,Camping_Kerry,3,Blk,24,"[4, 7, 8, 6]"
Fitzmaurice's Caravan & Camping Park,http://www.fitzmauricescaravanpark.com,+353(0)51381466,-7.138872,52.164454,Waterford,Riverstown,Republic of Ireland,Camping,1072,Camping_Waterford,2,Div,75,"[6, 5, 2, 2]"
Meadow Camping Park,,+353(0)2833280,-9.10905,51.564219,Cork,Glandore,Republic of Ireland,Camping,908,Camping_Cork,1,Zone,99,"[6, 2, 8, 9]"
Jasmine Villa,,+353(0)214883234,-8.23967,51.911458,Cork,Carrigtwohill,Republic of Ireland,Camping,676,Camping_Cork,3,Zone,42,"[2, 9, 2, 4]"
Keel Sandybanks Caravan and Camping Park,http://www.achillcamping.com,+353(0)9843211,-10.077045,53.974912,Mayo,,Republic of Ireland,Camping,1104,Camping_Mayo,3,Lot,29,"[5, 2, 0, 3, 6]"
Blarney Caravan and Camping Park,http://www.blarneycaravanpark.com,+353(0)214516519,-8.5461,51.947423,Cork,Blarney,Republic of Ireland,Camping,870,Camping_Cork,1,Sect,30,"[2, 1, 7, 1]"
Lough Ramor Caravan and Camping Park,,3.53873E+11,-7.049428,53.795701,Cavan,Virginia,Republic of Ireland,Camping,900,Camping_Cavan,1,Zone,59,"[4, 5]"
Glenbeg Caravan Park,,+353(0)669475182,-10.08149641,51.75895187,Kerry,Caherdaniel,Republic of Ireland,Camping,822,Camping_Kerry,1,Sect,5,"[2, 2]"
Woodlands Park,https://www.facebook.com/woodlandstralee,+353(0)667121235,-9.703761,52.261393,Kerry,Tralee,Republic of Ireland,Camping,709,Camping_Kerry,4,Lot,48,"[0, 0, 3]"
Sir Rogers Caravan and Camping Park,http://www.sirrogers.com/,+353(0)667134730,-9.825253038,52.34021718,Kerry,Ardfert,Republic of Ireland,Camping,1156,Camping_Kerry,5,Lot,3,"[3, 5]"
O'Briens Cashel Lodge,http://www.cashel-lodge.com,+353(0)6261003,-7.895595,52.520046,Tipperary,Cashel,Republic of Ireland,Camping,1069,Camping_Tipperary,1,Div,4,"[6, 6]"
Moloney House,http://www.moloneyhouse.ie,+353(0)871250303,-9.382853519,53.01365572,Clare,Doolin,Republic of Ireland,B&B,986,B&B_Clare,2,Sect,43,"[6, 8, 0, 1]"
Tigh Fitz,http://www.tighfitz.com,+353(0)9961213,-9.664168021,53.10560026,Galway,Aran Islands,Republic of Ireland,"B&B,Welcome Standard",841,"B&B,Welcome Standard_Galway",2,Zone,74,"[6, 8, 9]"
West End Bar,http://www.westendfenit.ie,+353(0)667136246,-9.864376,52.276691,Kerry,Fenit,Republic of Ireland,"B&B,Welcome Standard",1094,"B&B,Welcome Standard_Kerry",2,Zone,88,"[4, 4, 0, 4]"
Abbey Lodge,http://www.abbey-lodge.com,+353(0)646634193,-9.506673,52.055283,Kerry,Killarney,Republic of Ireland,"B&B,Welcome Standard",927,"B&B,Welcome Standard_Kerry",2,Blk,9,"[2, 7, 8, 3]"
Óstán Loch Altan Hotel,http://www.ostanlochaltan.com/,+353(0)749135267,-8.133193902,55.12167518,Donegal,Gortahork,Republic of Ireland,Hotel,866,Hotel_Donegal,1,Div,25,"[1, 9, 7, 2, 6]"
Ballyliffin Hotel,http://www.ballyliffinhotel.com,+353(0)749376106,-7.393952,55.277699,Donegal,Ballyliffin,Republic of Ireland,Hotel,870,Hotel_Donegal,3,Lot,42,"[7, 1, 2]"
Dooley's Hotel Waterford,http://www.dooleys-hotel.ie,+353(0)51873531,-7.115599237,52.26286088,Waterford,Waterford City,Republic of Ireland,Hotel,736,Hotel_Waterford,2,Sect,57,"[1, 3, 6]"
Dorrian’s Imperial Hotel,http://www.dorriansimperialhotel.com,+353(0)719851147,-8.191242321,54.50200653,Donegal,Ballyshannon,Republic of Ireland,Hotel,655,Hotel_Donegal,2,Lot,98,"[5, 1, 2, 9]"
Arbutus Hotel,http://www.arbutuskillarney.com,+353(0)646631037,-9.506098047,52.05955281,Kerry,Killarney,Republic of Ireland,Hotel,933,Hotel_Kerry,2,Lot,68,"[1, 4, 0]"
Bridge Hotel,https://www.facebook.com/pages/Bridge-Hotel-Arklow/296977553466?ref=bookmarks,+353(0)40231666,-6.15244,52.798163,Wicklow,Arklow,Republic of Ireland,Hotel,1133,Hotel_Wicklow,5,Lot,54,"[8, 2, 7]"
Kelly's Resort Hotel,https://www.facebook.com/pages/Kellys-Resort-Hotel/306173243827,+353(0)539132114,-6.387774,52.275493,Wexford,Rosslare,Republic of Ireland,Hotel,638,Hotel_Wexford,4,Blk,7,"[3, 6, 5]"
Ryan's Hotel,http://www.ryanshotelcong.ie,+353(0)949546243,-9.28634747,53.54132409,Mayo,Cong,Republic of Ireland,Hotel,1115,Hotel_Mayo,3,Div,9,"[2, 9, 1]"
Hearn's Hotel,https://www.facebook.com/pages/category/Hotel/Hearns-Hotel-2217804311776051,+353(0)526121611,-7.698001565,52.35357851,Tipperary,Clonmel,Republic of Ireland,Hotel,1097,Hotel_Tipperary,2,Blk,16,"[4, 9, 3, 5, 6]"
Taravie Hotel,https://www.facebook.com/pages/Taravie-Hotel/200397549970664,+353(0)539425208,-6.228037606,52.6453262,Wexford,Gorey,Republic of Ireland,Hotel,766,Hotel_Wexford,5,Lot,66,"[2, 5, 6]"
Munster Arms Hotel,http://www.munsterarmshotel.ie,+353(0)238841562,-8.733748497,51.74518113,Cork,Bandon,Republic of Ireland,Hotel,979,Hotel_Cork,5,Blk,33,"[7, 6, 1]"
Glendalough Hotel,http://www.glendaloughhotel.com,+353(0)40445135,-6.325768764,53.01140875,Wicklow,Glendalough,Republic of Ireland,Hotel,699,Hotel_Wicklow,1,Blk,24,"[0, 6, 4, 6, 7]"
Glen Hotel,http://www.theglenhotel.weebly.com,+353(0)749520505,-8.499613698,54.99006988,Donegal,,Republic of Ireland,Hotel,1055,Hotel_Donegal,5,Lot,67,"[6, 8, 7, 8]"
Imperial Hotel (Galway),http://www.imperialhotelgalway.ie,+353(0)91563033,-9.050906659,53.27460434,Galway,Eyre Square,Republic of Ireland,Hotel,1021,Hotel_Galway,4,Zone,81,"[2, 2, 6]"
Dunraven Arms Hotel,http://www.dunravenhotel.com,+353(0)61605900,-8.786761762,52.5655143,Limerick,Adare,Republic of Ireland,Hotel,813,Hotel_Limerick,1,Zone,44,"[0, 2, 9, 7]"
O'Donovan's Hotel,http://www.odonovanshotel.com,+353(0)238833250,-8.889939883,51.62303021,Cork,Clonakilty,Republic of Ireland,Hotel,640,Hotel_Cork,4,Lot,88,"[1, 0, 2, 8, 5]"
Greville Arms Hotel,http://www.grevillearmshotel.ie/,3.53449E+11,-7.340922283,53.52577807,Westmeath,Mullingar,Republic of Ireland,Hotel,1183,Hotel_Westmeath,1,Sect,73,"[4, 4, 6, 9, 4]"
The Anner Hotel,http://www.annerhotel.ie,+353(0)50421799,-7.796215534,52.67877702,Tipperary,Thurles,Republic of Ireland,Hotel,867,Hotel_Tipperary,1,Zone,71,"[9, 3, 8, 5]"
Rosapenna Hotel and Golf Resort,http://www.rosapenna.ie,+353(0)749155301,-7.827363929,55.1886295,Donegal,Downings,Republic of Ireland,Hotel,1136,Hotel_Donegal,1,Lot,86,"[4, 6, 3, 6, 3]"
Hotel Kilkenny,http://www.hotelkilkenny.ie,+353(0)567762000,-7.261078505,52.6430975,Kilkenny,Kilkenny City,Republic of Ireland,Hotel,1007,Hotel_Kilkenny,3,Zone,19,"[7, 4, 4, 3]"
Anno Santo Hotel,,+353(0)91523011,-9.088565312,53.26331118,Galway,Salthill,Republic of Ireland,Hotel,1067,Hotel_Galway,4,Blk,76,"[5, 5, 0, 1]"
Innishannon House Hotel,http://www.innishannonhotel.ie,+353(0)214775121,-8.648075548,51.75968822,Cork,Innishannon,Republic of Ireland,Hotel,1056,Hotel_Cork,3,Lot,95,"[8, 8]"
Brandon Hotel Conference & Leisure Centre,http://www.facebook.com/brandonhotel,+353(0)667123333,-9.709938958,52.26705648,Kerry,Tralee,Republic of Ireland,Hotel,716,Hotel_Kerry,1,Lot,99,"[0, 7]"
Devon Inn Hotel,http://www.devoninnhotel.ie,+353(0)6984122,-9.179745689,52.39483047,Limerick,Templeglantine,Republic of Ireland,Hotel,818,Hotel_Limerick,1,Blk,58,"[3, 6, 2, 1]"
Castle Arms Hotel,http://www.castlearmshotel.ie,+353(0)578736117,-7.396035831,52.84537189,Laois,Durrow,Republic of Ireland,Hotel,880,Hotel_Laois,5,Zone,75,"[8, 7, 1]"
Ferrycarrig Hotel,http://www.ferrycarrighotel.com,+353(0)539120999,-6.505782339,52.35372868,Wexford,Ferrycarrig,Ireland,Hotel,899,Hotel_Wexford,5,Zone,88,"[8, 9, 7, 1]"
Carraroe Hotel,http://carraroehotel.com,+353(0)91869577,-9.606860663,53.26393053,Galway,Carraroe,Republic of Ireland,Hotel,626,Hotel_Galway,4,Lot,85,"[2, 1]"
Roundstone House Hotel,https://www.facebook.com/roundstonehouse/,+353(0)9535864,-9.919040298,53.395151,Galway,Roundstone,Republic of Ireland,Hotel,928,Hotel_Galway,1,Zone,89,"[3, 5]"
Kenmare Bay Hotel & Resort,http://www.kenmarebayhotel.com,+353(0)646641300,-9.591345724,51.88302456,Kerry,Kenmare,Republic of Ireland,Hotel,692,Hotel_Kerry,5,Div,83,"[4, 2, 1]"
Greenhills Hotel,http://www.greenhillsgroup.com,+353(0)61453033,-8.671157495,52.67371159,Limerick,Limerick City,Republic of Ireland,Hotel,1046,Hotel_Limerick,4,Zone,38,"[5, 2, 8, 8, 9]"
Fitzgeralds Hotel,http://www.fitzgeraldshotel.com,+353(0)719841336,-8.284494546,54.47662929,Donegal,Bundoran,Republic of Ireland,Hotel,1010,Hotel_Donegal,3,Zone,73,"[6, 9]"
White Lady Hotel,http://www.whiteladyhotelkinsale.ie,+353(0)214772737,-8.519749898,51.70143657,Cork,Kinsale,Republic of Ireland,Hotel,1154,Hotel_Cork,1,Sect,41,"[2, 8, 4, 4, 5]"
Riverbank House Hotel,http://www.riverbankhousehotel.com,+353(0)539123611,-6.455005044,52.34468854,Wexford,,Republic of Ireland,Hotel,1047,Hotel_Wexford,5,Blk,80,"[1, 5, 8, 5, 2]"
Mountshannon Hotel,http://www.mountshannon-hotel.ie,+353(0)61927162,-8.428158697,52.93183914,Clare,Mountshannon,Republic of Ireland,Hotel,820,Hotel_Clare,3,Zone,81,"[5, 7]"
Killarney Avenue Hotel,http://www.killarneyavenue.com,+353(0)646632522,-9.506268775,52.05752643,Kerry,Killarney,Republic of Ireland,Hotel,1181,Hotel_Kerry,1,Div,93,"[9, 6, 5, 0]"
Blarney Woollen Mills Hotel,http://www.blarneywoollenmillshotel.com,+353(0)214385011,-8.565252589,51.93293105,Cork,Blarney,Republic of Ireland,Hotel,846,Hotel_Cork,2,Zone,59,"[1, 7, 1, 9]"
Town House Hotel,http://www.thetownhousehotel.ie,+353(0)45879226,-6.671920335,53.21625044,Kildare,Naas,Republic of Ireland,Hotel,795,Hotel_Kildare,3,Zone,48,"[4, 1, 2]"
Sancta Maria Hotel,http://www.sancta-maria.ie,+353(0)657081041,-9.319108983,52.93756026,Clare,Lahinch,Republic of Ireland,Hotel,1144,Hotel_Clare,1,Blk,17,"[2, 5, 9, 6, 0]"
Teach Óstan na Pairce Hotel,http://www.parklodgehotel.ie,+353(0)91553159,-9.264498484,53.24702014,Galway,Spiddal,Republic of Ireland,Hotel,822,Hotel_Galway,2,Sect,64,"[3, 2, 2]"
Cedar Lodge Hotel and Restaurant,http://www.cedarlodgehotel.ie/,+353(0)51428386,-6.773846,52.364251,Wexford,Newbawn,Republic of Ireland,Hotel,645,Hotel_Wexford,3,Blk,57,"[3, 2, 4, 3]"
Tinakilly Country House and Restaurant,http://www.tinakilly.ie,+353(0)40469274,-6.06691249,52.99618228,Wicklow,Rathnew,Republic of Ireland,Hotel,882,Hotel_Wicklow,5,Blk,51,"[4, 9]"
Sligo Southern Hotel,https://www.sligosouthernhotel.ie/,3.53719E+11,-8.48277647,54.27146424,Sligo,,Republic of Ireland,Hotel,1078,Hotel_Sligo,1,Zone,67,"[5, 9, 6, 2]"
Dun A Ri House Hotel,http://www.dunarihouse.com,3.5343E+11,-6.804064,53.905079,Cavan,Kingscourt,Ireland,Hotel,713,Hotel_Cavan,3,Zone,85,"[4, 4, 1]"
"Oranmore Lodge Hotel, Conference and Leisure Centre",https://www.facebook.com/oranmorelodgehotel?ref=hl,+353(0)91794400,-8.930882414,53.27602566,Galway,Oranmore,Republic of Ireland,Hotel,878,Hotel_Galway,5,Zone,15,"[3, 9]"
Blarney Castle Hotel,http://www.blarneycastlehotel.com,+353(0)214385116,-8.567189848,51.9325031,Cork,Blarney,Republic of Ireland,Hotel,678,Hotel_Cork,5,Zone,43,"[8, 1, 4, 5]"
Adare Manor Hotel & Golf Resort,https://www.adaremanor.com/,35361605200,-8.7778256,52.5641886,Limerick,Adare,Ireland,Hotel,1012,Hotel_Limerick,5,Div,72,"[4, 3, 0]"
Danaghers Hotel,http://danaghershotelcong.wix.com/danaghers#!contact/c24vq,+353(0)949546028,-9.286207,53.540546,Mayo,Cong,Republic of Ireland,Hotel,885,Hotel_Mayo,1,Sect,82,"[9, 0, 4, 5, 7]"
Lough Inagh Lodge Hotel,http://www.loughinaghlodgehotel.ie,+353(0)9534706,-9.741996834,53.52079805,Galway,Recess,Republic of Ireland,Hotel,798,Hotel_Galway,5,Zone,78,"[4, 7, 9, 8, 2]"
Harbour View Hotel,http://www.harbourhotel.ie,+353(0)45879145,-6.667711507,53.21620728,Kildare,Naas,Republic of Ireland,Hotel,736,Hotel_Kildare,5,Sect,80,"[4, 0, 7, 8, 3]"
Cill Aodain Court Hotel,http://www.cillaodain.ie,+353(0)949381761,-8.998056,53.85042,Mayo,Kiltimagh,Republic of Ireland,Hotel,939,Hotel_Mayo,2,Div,85,"[3, 1, 9]"
The Carraig,http://www.carraighotel.com,+353(0)51641455,-7.412455321,52.34537351,Tipperary,,Republic of Ireland,Hotel,1002,Hotel_Tipperary,3,Lot,96,"[5, 0]"
Bay View Hotel (Killybegs),http://www.bayviewhotel.ie,+353(0)749731950,-8.442173954,54.63680048,Donegal,Killybegs,Republic of Ireland,Hotel,1165,Hotel_Donegal,3,Div,61,"[9, 6, 6, 8]"
Walter Raleigh Hotel,http://www.walterraleighhotel.com,+353(0)2492011,-7.843490391,51.94677001,Cork,Youghal,Republic of Ireland,Hotel,862,Hotel_Cork,3,Zone,25,"[8, 2, 5, 8, 2]"
Gullane's Hotel,http://www.gullaneshotel.com,+353(0)909642220,-8.221166371,53.33057938,Galway,Ballinasloe,Republic of Ireland,Hotel,696,Hotel_Galway,2,Div,56,"[0, 8, 6, 7]"
River Island Hotel,http://www.riverislandhotel.com/,+353(0)667142555,-9.464129475,52.23068698,Kerry,Castleisland,Republic of Ireland,Hotel,1100,Hotel_Kerry,5,Sect,71,"[2, 4, 8, 1, 8]"
Dunmore House Hotel,http://www.dunmorehousehotel.ie,+353(0)238833352,-8.867678904,51.5902265,Cork,Muckross,Republic of Ireland,Hotel,978,Hotel_Cork,5,Blk,10,"[5, 5, 6]"
Park House Hotel,http://www.parkhousehotel.ie,+353(0)91564924,-9.046731097,53.27447413,Galway,Eyre Square,Republic of Ireland,Hotel,1020,Hotel_Galway,2,Blk,75,"[3, 1, 4, 6, 7]"
Dinn Rí Hotel,http://www.dinnri.com,+353(0)599133111,-6.930033732,52.83584625,Carlow,Carlow Town,Republic of Ireland,Hotel,658,Hotel_Carlow,5,Div,54,"[3, 9, 0, 1, 0]"
Langton House,http://www.langtons.ie,+353(0)567765133,-7.248266656,52.65327993,Kilkenny,Kilkenny City,Republic of Ireland,Hotel,787,Hotel_Kilkenny,2,Div,93,"[1, 6, 8, 7, 9]"
Dunbrody Country House Hotel,http://www.dunbrodyhouse.com,+353(0)51389600,-6.942125,52.23985,Wexford,Arthurstown,Republic of Ireland,Hotel,1061,Hotel_Wexford,4,Div,21,"[4, 5]"
Ballyglass Country House,http://www.ballyglasshouse.com,+353(0)6252104,-8.165632,52.442009,Tipperary,,Republic of Ireland,Hotel,1100,Hotel_Tipperary,3,Zone,90,"[6, 5, 3, 1]"
Limerick City Hotel,https://www.limerickcityhotel.ie/,35361207000,-8.6334112,52.6610648,Limerick,,Ireland,Hotel,861,Hotel_Limerick,3,Sect,45,"[2, 5, 7]"
Fennessys Hotel,http://www.fennessyshotel.com,+353(0)526123680,-7.702124,52.354589,Tipperary,Clonmel,Republic of Ireland,Hotel,1083,Hotel_Tipperary,1,Zone,57,"[5, 0, 6, 4]"
The Address Cork,https://www.theaddresscork.com/,+353(0)214539000,-8.459401,51.905133,Cork,Cork City,Republic of Ireland,Hotel,1105,Hotel_Cork,4,Div,66,"[2, 7]"
Downhill Inn Hotel,http://www.downhillinn.ie,+353(0)9673444,-9.135038,54.119429,Mayo,Ballina,Republic of Ireland,Hotel,832,Hotel_Mayo,2,Lot,58,"[5, 9, 1, 2, 9]"
Killarney Court Hotel,http://www.killarneycourthotel.com/,+353(0)646637070,-9.515446,52.068823,Kerry,Killarney,Republic of Ireland,Hotel,1139,Hotel_Kerry,2,Zone,90,"[6, 2]"
Meadowlands Hotel,https://www.meadowlandshotel.com/,+353(0)667180444,-9.691311,52.27621,Kerry,Tralee,Republic of Ireland,Hotel,773,Hotel_Kerry,1,Blk,17,"[4, 3, 8]"
Times Hotel,,+353(0)6231111,-8.157902,52.473949,Tipperary,Tipperary Town,Republic of Ireland,Hotel,743,Hotel_Tipperary,5,Sect,73,"[5, 5, 0, 2, 0]"
Bella Vista Hotel,http://www.bellavistahotel.ie,+353(0)214812450,-8.297062,51.851385,Cork,Cobh,Republic of Ireland,Hotel,1010,Hotel_Cork,1,Zone,97,"[2, 3, 8, 7, 6]"
Leenane Hotel,http://leenanehotel.com/,+353(0)9542249,-9.70493,53.594557,Galway,Leenane,Republic of Ireland,Hotel,982,Hotel_Galway,4,Div,22,"[5, 5]"
The Wilton Hotel,http://www.wiltonhotelbray.com,+353(0)12760258,-6.100199,53.186639,Wicklow,Bray,Republic of Ireland,Hotel,683,Hotel_Wicklow,5,Zone,26,"[7, 9, 2]"
Grand Central Hotel,http://www.grandcentralbundoran.com/,+353(0)719842722,-8.276529,54.47987,Donegal,Bundoran,Republic of Ireland,Hotel,1100,Hotel_Donegal,1,Blk,48,"[3, 8, 0]"
WatersEdge Hotel,http://www.watersedgehotel.ie,+353(0)214815566,-8.297908,51.849027,Cork,Cobh,Republic of Ireland,Hotel,720,Hotel_Cork,3,Sect,72,"[7, 4, 5, 8, 7]"
Brook Lodge Hotel,http://www.brooklodgekillarney.com,+353(0)646631800,-9.512499,52.060785,Kerry,Killarney,Republic of Ireland,Hotel,1083,Hotel_Kerry,3,Div,95,"[0, 6, 1]"
Riverside Hotel Killarney,http://www.riversidehotelkillarney.com,+353(0)646639200,-9.507321,52.049159,Kerry,Killarney,Republic of Ireland,Hotel,604,Hotel_Kerry,2,Div,79,"[9, 4]"
Ballina Manor Hotel,http://ballinamanorhotel.ie/,+353(0)9680900,-9.15404,54.112587,Mayo,Ballina,Republic of Ireland,Hotel,1078,Hotel_Mayo,4,Zone,79,"[2, 1, 0, 3]"
Mulcahy's Hotel,http://www.mulcahys.ie,+353(0)526125054,-7.70171,52.353766,Tipperary,Clonmel,Republic of Ireland,Hotel,1072,Hotel_Tipperary,3,Sect,44,"[4, 3]"
An Crúiscín Lán,http://www.cruiscin.ie,+353(0)91553148,-9.306534,53.243982,Galway,Spiddal,Republic of Ireland,Hotel,1068,Hotel_Galway,3,Div,64,"[5, 3, 4, 0]"
Travelodge Limerick,http://www.travelodge.ie/hotels/229/Limerick-Ennis-Road-hotel,35361457000,-8.6756236,52.673521,Limerick,Knock,Ireland,Hotel,999,Hotel_Limerick,3,Sect,21,"[9, 9, 4]"
Woodenbridge Lodge,http://www.woodenbridgehotel.com,+353(0)40235146,-6.234952878,52.83232292,Wicklow,Woodenbridge,Republic of Ireland,Hotel,883,Hotel_Wicklow,5,Zone,46,"[5, 1, 8, 4, 6]"
The Pilgrims Rest Hotel,http://www.thepilgrimsrest.com,+353(0)5852917,-7.848526,52.183216,Waterford,Cappoquin,Republic of Ireland,Hotel,1023,Hotel_Waterford,4,Blk,19,"[3, 7, 5, 3]"
Downings Bay Hotel,http://www.downingsbayhotel.com,+353(0)749155586,-7.835622,55.194587,Donegal,Downings,Republic of Ireland,Hotel,766,Hotel_Donegal,2,Lot,3,"[7, 2, 1]"
Quality Hotel Youghal,http://www.qualityyoughal.com,+353(0)2493050,-7.872633,51.924996,Cork,Youghal,Republic of Ireland,Hotel,1069,Hotel_Cork,5,Blk,85,"[3, 6, 7, 8, 6]"
Malinbeg Hostel,http://www.malinbeghostel.com,+353(0)749730006,-8.729419105,54.7079734,Donegal,,Republic of Ireland,Hostel,933,Hostel_Donegal,5,Div,80,"[8, 9, 0, 7]"
Courtbrack Accommodation,,+353(0)61302500,-8.646733,52.655444,Limerick,Limerick City,Republic of Ireland,Hostel,875,Hostel_Limerick,5,Lot,51,"[8, 0]"
"Sheilas Tourist Hostel
",http://www.sheilashostel.ie,+353(0)214505562,-8.465951,51.902614,Cork,Cork City,Republic of Ireland,Hostel,903,Hostel_Cork,4,Lot,2,"[1, 6]"
Cashel Holiday Hostel,http://www.cashelhostel.com,+353(0)6262330,-7.887698,52.516,Tipperary,Cashel,Republic of Ireland,Hostel,941,Hostel_Tipperary,2,Zone,9,"[0, 5]"
Old Monastery Hostel,http://www.oldmonasteryhostel.com,+353(0)872349543,-9.946109,53.551973,Galway,Letterfrack,Republic of Ireland,Hostel,622,Hostel_Galway,4,Lot,12,"[5, 4, 6, 5, 3]"
Killarney Railway Hostel,http://www.killarneyhostel.com,+353(0)646635299,-9.503186,52.060525,Kerry,Killarney,Republic of Ireland,Hostel,684,Hostel_Kerry,2,Blk,71,"[0, 2, 6, 3]"
Rainbow Hostel,,+353(0)657074415,-9.370623,53.019764,Clare,Doolin,Republic of Ireland,Hostel,747,Hostel_Clare,2,Blk,21,"[1, 8]"
Dempsey's Hostel,http://www.hostelkinsale.com,+353(0)214772124,-8.514567,51.708141,Cork,Kinsale,Republic of Ireland,Hostel,668,Hostel_Cork,3,Lot,25,"[0, 7, 5]"
Killarney Lakeland Cottages,http://www.killarneycottages.com,+353(0)646633290,-9.481653,52.030964,Kerry,Muckross,Republic of Ireland,Self Catering Accommodation,864,Self Catering Accommodation_Kerry,5,Zone,86,"[8, 3, 5]"
Old Deanery Holiday Cottages,http://www.olddeanerycottages.com,+353(0)9632221,-9.220393,54.212835,Mayo,Killala,Republic of Ireland,Self Catering Accommodation,1001,Self Catering Accommodation_Mayo,3,Sect,87,"[6, 2, 6, 7]"
Quilty Holiday Cottages,http://www.quiltycottages.com,+353(0)657087095,-9.443341319,52.83060004,Clare,Quilty,Republic of Ireland,Self Catering Accommodation,993,Self Catering Accommodation_Clare,2,Zone,76,"[1, 6]"
Kinsale Holiday Village,http://www.kinsaleholidayvillage.com,+353(0)214772488,-8.516539,51.709711,Cork,Kinsale,Republic of Ireland,Self Catering Accommodation,883,Self Catering Accommodation_Cork,3,Lot,31,"[8, 1]"
Ardnagashel Estate,https://twitter.com/search?q=rentacottageIRE&src=typd,+353(0)61411109,-9.472418,51.726924,Cork,Bantry,Republic of Ireland,Self Catering Accommodation,1113,Self Catering Accommodation_Cork,2,Lot,58,"[6, 4, 2, 3, 7]"
Dingle Marina Cottages,http://www.dinglecottages.com,+353(0)669150200,-10.281096,52.140331,Kerry,Dingle,Republic of Ireland,Self Catering Accommodation,939,Self Catering Accommodation_Kerry,4,Blk,20,"[2, 5, 9, 2, 6]"
Carraroe Holiday Village,http://www.carraroeholidaycottages.ie,+353(0)91551170,-9.601626,53.264241,Galway,Lettermore,Republic of Ireland,Self Catering Accommodation,647,Self Catering Accommodation_Galway,2,Lot,85,"[8, 1]"
Fairgreen Holiday Cottages,http://www.fairgreencottages.com,+353(0)749521247,-8.365927,54.953188,Donegal,Dungloe,Republic of Ireland,Self Catering Accommodation,1059,Self Catering Accommodation_Donegal,3,Sect,9,"[4, 3, 1]"
Tra Na Rosann,https://anoige.ie/tra-na-rosann/,+353(0)749155374,-7.804096,55.229375,Donegal,Downings,Republic of Ireland,Hostel,945,Hostel_Donegal,2,Zone,74,"[0, 9, 0, 3]"
Knockree Youth Hostel,http://www.facebook.com/anoige,+353(0)12767981,-6.211837,53.17841,Wicklow,Knockree,Republic of Ireland,Hostel,981,Hostel_Wicklow,2,Lot,51,"[1, 0, 7, 0, 8]"
Fortview House,http://www.fortview.com,+353(0)494338834,-7.340481,54.074129,Cavan,Cloverhill,Republic of Ireland,B&B,939,B&B_Cavan,5,Div,75,"[8, 2, 1]"
Park House,http://www.parkhouse.ie,+353(0)61369902,-8.810057,52.706119,Clare,Bunratty,Republic of Ireland,B&B,932,B&B_Clare,2,Div,45,"[7, 9, 3, 4, 5]"
Glencarrig,https://www.facebook.com/glencarrig,+353(0)659058209,-9.721323,52.592004,Clare,Carrigaholt,Republic of Ireland,B&B,654,B&B_Clare,1,Lot,16,"[2, 3, 6]"
Lakefield Lodge,http://www.lakefieldlodgebandb.com,+353(0)656837675,-9.061977,52.939716,Clare,Corofin,Republic of Ireland,B&B,936,B&B_Clare,2,Zone,75,"[3, 2]"
Churchfield,http://www.doolinaccommodations.com,+353(0)657074209,-9.371226,53.019892,Clare,Doolin,Republic of Ireland,B&B,1077,B&B_Clare,3,Sect,63,"[1, 4]"
Riverdale Farmhouse,http://www.riverdaledoolin.com,+353(0)657074257,-9.347061,53.023344,Clare,Doolin,Republic of Ireland,B&B,782,B&B_Clare,1,Blk,46,"[3, 5]"
Glasha Meadows,http://www.glashameadows.com,+353(0)657074443,-9.361815,53.033792,Clare,Doolin,Republic of Ireland,B&B,962,B&B_Clare,2,Zone,37,"[0, 4, 1, 4, 4]"
Doonagore Farmhouse,http://www.doolin-accommodation.com,+353(0)657074170,-9.388619,52.998352,Clare,Doolin,Republic of Ireland,B&B,618,B&B_Clare,1,Zone,35,"[4, 9, 1, 0, 0]"
Newpark House,http://www.newparkhouse.com,+353(0)656821233,-8.957143,52.854165,Clare,Ennis,Republic of Ireland,"B&B,B&Bs,Historic House",808,"B&B,B&Bs,Historic House_Clare",3,Blk,48,"[1, 0, 2]"
Glen Cove,http://www.glencove.clareireland.net,+353(0)656824561,-8.945913,52.820018,Clare,Clarecastle,Republic of Ireland,B&B,862,B&B_Clare,4,Zone,26,"[8, 0, 9, 2, 4]"
Crosswinds,http://www.crosswinds-lisdoonvarna.com,+353(0)657074469,-9.320519967,53.01677691,Clare,Lisdoonvarna,Republic of Ireland,B&B,1190,B&B_Clare,5,Zone,28,"[4, 7, 7]"
Clonmore Lodge,http://www.clonmorelodge.com,+353(0)657087020,-9.455001,52.799763,Clare,Quilty,Republic of Ireland,B&B,728,B&B_Clare,2,Zone,28,"[6, 7, 1, 3]"
Channel View,http://www.channelviewbb.com,+353(0)2820440,-9.357086,51.484705,Cork,Baltimore,Republic of Ireland,B&B,766,B&B_Cork,5,Lot,2,"[7, 4]"
Rathmore House,http://www.baltimorebb.com,+353(0)2820362,-9.342825,51.512831,Cork,Baltimore,Republic of Ireland,B&B,845,B&B_Cork,2,Div,92,"[5, 2, 1, 9]"
Doire Liath,http://www.bantrybedandbreakfasts.com/,+353(0)2750223,-9.446768,51.685186,Cork,Newtown,Republic of Ireland,B&B,1196,B&B_Cork,4,Sect,24,"[1, 3, 9]"
Sea Mount B&B,http://www.seamountfarm.com,+353(0)2761226,-9.624338,51.633241,Cork,Bantry,Republic of Ireland,B&B,1112,B&B_Cork,3,Div,17,"[9, 4, 8]"
Lanesville,http://www.lanesvillebandb.com,+353(0)214381813,-8.549303,51.921502,Cork,Blarney,Republic of Ireland,B&B,620,B&B_Cork,4,Div,15,"[0, 5, 4, 2]"
Sea Villa,http://www.seavilla.net,+353(0)2774369,-9.886169,51.75573,Cork,Ardgroom,Republic of Ireland,B&B,740,B&B_Cork,4,Div,98,"[1, 6, 8, 0]"
Sandycove House,http://www.sandycovehouse.com,+353(0)2836223,-9.198747,51.509557,Cork,Castletownshend,Republic of Ireland,B&B,1093,B&B_Cork,3,Sect,48,"[6, 0, 3]"
Ballard House,,+353(0)238833865,-8.846567,51.637972,Cork,Clonakilty,Republic of Ireland,B&B,635,B&B_Cork,2,Div,33,"[0, 8, 4]"
Melrose Bed & Breakfast,http://www.melrosewestcork.com,+353(0)238833956,-8.908599,51.617508,Cork,Clonakilty,Republic of Ireland,B&B,1114,B&B_Cork,3,Sect,40,"[5, 8, 9, 6, 3]"
Mountview House,http://www.mountviewcobh.blogspot.com,+353(0)214814260,-8.291899,51.853284,Cork,Cobh,Republic of Ireland,B&B,769,B&B_Cork,5,Blk,9,"[8, 4, 5]"
Caroleville,http://www.caroleville.com,+353(0)214294321,-8.430133,51.893781,Cork,Cork City,Republic of Ireland,B&B,1151,B&B_Cork,5,Blk,32,"[9, 6]"
Number Forty Eight,http://www.bbcorknumberfortyeight.com,+353(0)214505790,-8.456336,51.902333,Cork,Cork City,Republic of Ireland,B&B,776,B&B_Cork,5,Zone,25,"[5, 4, 1]"
Galley Cove House,http://www.galleycovehouse.com,+353(0)2835137,-9.735651,51.464431,Cork,Crookhaven,Republic of Ireland,B&B,861,B&B_Cork,1,Zone,80,"[8, 8, 3, 2, 0]"
Island View House,https://www.islandviewhouse.net/,+353(0)2763081,-9.542959,51.751765,Cork,Glengarriff,Republic of Ireland,B&B,997,B&B_Cork,3,Sect,6,"[3, 8, 8, 1]"
The Heron's Cove,http://www.heronscove.com,+353(0)2835225,-9.708978,51.495923,Cork,West Cork,Republic of Ireland,B&B,675,B&B_Cork,1,Blk,43,"[1, 4, 4, 9, 6]"
Glenlohane,https://www.facebook.com/GlenlohaneCountryHouse,+353(0)2950014,-8.850719,52.177136,Cork,Kanturk,Republic of Ireland,"B&B,B&Bs,Historic House",934,"B&B,B&Bs,Historic House_Cork",4,Div,79,"[5, 8, 8, 8, 4]"
Greenmount House,,+353(0)214772674,-8.49824,51.708497,Cork,Kinsale,Republic of Ireland,B&B,903,B&B_Cork,5,Blk,83,"[9, 7, 9]"
Fountain House,http://www.fountainhousemacroom.com,+353(0)2643813,-8.927426,51.874832,Cork,Macroom,Republic of Ireland,B&B,1071,B&B_Cork,1,Lot,51,"[9, 7, 7, 1]"
Findus House,http://www.findushouse.ie,+353(0)2640023,-9.074286,51.890201,Cork,Macroom,Republic of Ireland,B&B,1198,B&B_Cork,4,Lot,23,"[7, 7, 9, 3]"
Sundown House,http://www.sundownhousebb.com,+353(0)214667375,-8.084723,51.920977,Cork,Castlemartyr,Republic of Ireland,B&B,999,B&B_Cork,5,Blk,34,"[9, 9, 1]"
Marguerites,http://www.margueritesskibbereen.com,+353(0)2821166,-9.278006,51.541257,Cork,Skibbereen,Republic of Ireland,B&B,845,B&B_Cork,5,Zone,23,"[9, 1, 7]"
PK Lodge,http://www.pklodgeskibbereen.com,+353(0)2821749,-9.239134,51.560277,Cork,Skibbereen,Republic of Ireland,B&B,844,B&B_Cork,2,Sect,66,"[1, 7]"
Elm Brook,,+353(0)719852615,-8.185912,54.499024,Donegal,Ballyshannon,Republic of Ireland,B&B,851,B&B_Donegal,1,Lot,29,"[5, 8, 3, 5]"
Westbrook House,http://www.westbrookhouse.ie,+353(0)749361067,-7.455658,55.142057,Donegal,Buncrana,Republic of Ireland,B&B,1089,B&B_Donegal,5,Sect,63,"[7, 3, 6, 4]"
Caldra,http://www.caldrabandb.com,+353(0)749363703,-7.461378,55.144978,Donegal,Buncrana,Republic of Ireland,B&B,793,B&B_Donegal,5,Blk,65,"[8, 3, 6, 9]"
Riversdale Country House,https://www.facebook.com/RiversdaleCountryHouse/,+353(0)749374017,-7.259930157,55.25393148,Donegal,Carndonagh,Republic of Ireland,B&B,700,B&B_Donegal,3,Sect,94,"[9, 5, 2, 9, 6]"
Mevagh House,http://www.mevaghhouse.com,+353(0)749154708,-7.785543,55.176324,Donegal,Carrigart,Republic of Ireland,B&B,800,B&B_Donegal,5,Sect,37,"[3, 2]"
Trean House,https://www.facebook.com/treanhouse,+353(0)749367121,-7.069722038,55.26779442,Donegal,Inishowen,Republic of Ireland,"B&B,Welcome Standard",613,"B&B,Welcome Standard_Donegal",1,Lot,96,"[0, 7, 5, 0, 6]"
The Bluestack Centre,http://www.donegalbluestacks.ie,+353(0)749735564,-8.18970328,54.69265312,Donegal,Donegal Town,Republic of Ireland,"Hostel,Welcome Standard",663,"Hostel,Welcome Standard_Donegal",4,Zone,40,"[7, 5, 3, 1, 0]"
Bayside,http://www.bayside.ie,+353(0)749722768,-8.121609,54.610024,Donegal,Laghey,Republic of Ireland,B&B,654,B&B_Donegal,1,Lot,68,"[6, 0, 9]"
Ardlenagh View,http://www.ardlenaghview.com,+353(0)749721646,-8.117911,54.633358,Donegal,,Republic of Ireland,B&B,1063,B&B_Donegal,5,Blk,66,"[2, 9, 1, 9]"
Avalon,http://www.avalonbandbglenties.com,+353(0)749551292,-8.279082,54.790222,Donegal,Glenties,Republic of Ireland,B&B,1034,B&B_Donegal,4,Sect,81,"[3, 4, 9]"
Brennan's B&B,https://www.brennansbnb.ie,+353(0)749551235,-8.282142,54.796294,Donegal,Glenties,Republic of Ireland,B&B,1018,B&B_Donegal,5,Zone,47,"[9, 3, 2]"
Gartan Outdoor Education and Training Centre,http://www.gartan.com,+353(0)749137032,-7.90792375,54.99416048,Donegal,Letterkenny,Republic of Ireland,"Hostel,Welcome Standard",877,"Hostel,Welcome Standard_Donegal",3,Lot,79,"[6, 3, 1, 3]"
Ardlee,http://www.ardleehouse.ie,+353(0)749121943,-7.718962,54.957411,Donegal,Letterkenny,Republic of Ireland,B&B,1030,B&B_Donegal,1,Blk,36,"[0, 0, 9, 0]"
An Duna Ri,https://an-duna-ri-bed-breakfast.business.site/,+353(0)646633230,-9.485233163,52.01926456,Kerry,Muckross,Republic of Ireland,B&B,696,B&B_Kerry,1,Zone,49,"[7, 3, 4]"
Lissyclearig Thatched Cottage,http://www.lissyclearigthatchedcottage.com,+353(0)646642562,-9.595596,51.900625,Kerry,Kenmare,Republic of Ireland,B&B,1141,B&B_Kerry,2,Sect,50,"[7, 6]"
Clai Ban,http://www.claiban-house.com/,+353(0)9961111,-9.671875,53.12292,Galway,Aran Islands,Republic of Ireland,B&B,901,B&B_Galway,4,Blk,70,"[8, 3, 0, 3, 1]"
Hazelbrook,http://www.hazelbrook-connemara.net,+353(0)9544646,-10.11602,53.555386,Galway,Cleggan,Republic of Ireland,B&B,1163,B&B_Galway,1,Div,62,"[1, 9, 6, 2]"
The Ocean Wave,http://www.oceanwave-bedandbreakfast.com,+353(0)9544775,-10.139026,53.55801,Galway,Cleggan,Republic of Ireland,B&B,691,B&B_Galway,5,Lot,8,"[7, 4, 1, 3, 5]"
Cois na Mara,http://www.coisnamara.net,+353(0)9544647,-10.121586,53.555917,Galway,Cleggan,Republic of Ireland,B&B,898,B&B_Galway,2,Zone,81,"[2, 7, 2, 2, 4]"
Cnoc Breac,http://www.cnocbreac.com,+353(0)9544688,-10.124743,53.557392,Galway,Cleggan,Republic of Ireland,B&B,1018,B&B_Galway,3,Lot,76,"[4, 3]"
Ben Breen House,http://www.benbreenhouse.ie/,+353(0)9541171,-10.029912,53.543151,Galway,Moyard,Republic of Ireland,B&B,897,B&B_Galway,2,Sect,11,"[7, 3, 6]"
Rockmount House,http://www.rockmounthouse.com,+353(0)9521763,-10.098997,53.498581,Galway,Clifden,Republic of Ireland,B&B,868,B&B_Galway,3,Sect,96,"[6, 2, 8, 2]"
Sea Mist House,http://www.seamisthouse.com,+353(0)9521441,-10.024337,53.488219,Galway,Clifden,Republic of Ireland,"B&B,B&Bs,Historic House",699,"B&B,B&Bs,Historic House_Galway",3,Lot,66,"[8, 3, 6]"
The Wilderness,http://www.thewildernessbandb.com,+353(0)861035699,-9.900527,53.469666,Galway,Clifden,Republic of Ireland,B&B,828,B&B_Galway,1,Sect,9,"[6, 8]"
Ardmore House,https://www.facebook.com/Ardmore-House-Bed-Breakfast-Sky-Road-Clifden-166966460027337/,+353(0)9521221,-10.10398,53.499591,Galway,Clifden,Republic of Ireland,B&B,743,B&B_Galway,3,Blk,49,"[5, 8, 2, 3]"
Cregg House,https://www.bandbireland.com/accommodation/26162/cregg-house,+353(0)9521326,-9.977001,53.484326,Galway,Clifden,Republic of Ireland,B&B,781,B&B_Galway,4,Div,83,"[6, 7]"
Corrib View,http://www.corribviewfarm.com,+353(0)91791114,-9.05873,53.368517,Galway,Annaghdown,Republic of Ireland,B&B,1010,B&B_Galway,5,Div,28,"[7, 1, 6, 7, 2]"
Abbey View,,+353(0)91524488,-9.09941,53.297916,Galway,Galway City,Republic of Ireland,B&B,978,B&B_Galway,2,Zone,93,"[9, 4, 7]"
Woodhaven Lodge,http://woodhavenlodge.com/,+353(0)91753806,-9.004623,53.276836,Galway,Merlin Park,Republic of Ireland,B&B,964,B&B_Galway,5,Lot,42,"[6, 6, 6, 7]"
The Western Way,http://www.westernwaybb.com,35391552475,-9.3198572,53.4302875,Galway,Oughterard,Ireland,B&B,817,B&B_Galway,5,Lot,23,"[2, 9, 6, 5, 3]"
Crossriver,https://www.bandbireland.com/accommodation/26370/crossriver-b-b,35391552676,-9.3225495,53.4325809,Galway,Oughterard,Ireland,B&B,1176,B&B_Galway,5,Sect,36,"[6, 3, 2]"
Camillaun Lodge,https://www.camillaun.com/,35391552678,-9.319097,53.4335531,Galway,Oughterard,Ireland,B&B,652,B&B_Galway,2,Div,52,"[4, 6, 0, 0, 8]"
Corrib View Country House,https://www.bandbireland.com/accommodation/27104/corrib-view-country-house,35391552345,-9.26982,53.425799,Galway,Oughterard,Ireland,B&B,805,B&B_Galway,5,Zone,69,"[7, 9]"
Gleann Treasna,,+353(0)91572474,-9.54573,53.260243,Galway,Rossaveal,Republic of Ireland,B&B,670,B&B_Galway,3,Blk,92,"[8, 4, 9]"
Errisbeg Lodge,http://www.errisbeglodge.com,+353(0)9535807,-9.952294,53.384581,Galway,Roundstone,Republic of Ireland,B&B,803,B&B_Galway,1,Lot,20,"[4, 3]"
Rush Lake House,http://www.rushlakehouse.com,+353(0)9535915,-9.924923,53.391558,Galway,Roundstone,Republic of Ireland,B&B,1178,B&B_Galway,2,Lot,96,"[0, 8, 0, 3, 5]"
Screebe House,http://screebe.com/,+353(0)91574110,-9.55702568,53.38423775,Galway,Connemara,Republic of Ireland,"B&B,B&Bs,Historic House",820,"B&B,B&Bs,Historic House_Galway",4,Lot,53,"[4, 9]"
Briseadh na Carraige,http://www.galwaybay.com,+353(0)91553212,-9.259394,53.246601,Galway,Spiddal,Republic of Ireland,B&B,1146,B&B_Galway,1,Sect,13,"[0, 5, 5, 0, 6]"
Ardmor Country House,http://www.ardmorcountryhouse.com/,+353(0)91553145,-9.320589,53.243639,Galway,Spiddal,Republic of Ireland,B&B,897,B&B_Galway,3,Zone,92,"[6, 2, 2, 7]"
Sea Shore,http://www.seashorebandbballybunion.com,+353(0)6827986,-9.669792,52.526562,Kerry,Ballybunion,Republic of Ireland,B&B,1020,B&B_Kerry,4,Blk,35,"[1, 2, 5, 8]"
Castle View House,http://www.castleviewhouse.com,+353(0)6843304,-9.495796,52.573061,Kerry,Ballylongford,Republic of Ireland,B&B,874,B&B_Kerry,1,Zone,62,"[2, 8]"
Ferryview B&B,http://www.ferryview.com,+353(0)669472052,-10.268127,51.930456,Kerry,Cahersiveen,Republic of Ireland,B&B,759,B&B_Kerry,3,Div,70,"[9, 7, 9, 1]"
San Antoine,http://www.sanantoine.com,+353(0)669472521,-10.23521389,51.94159175,Kerry,Cahersiveen,Republic of Ireland,B&B,1059,B&B_Kerry,2,Div,2,"[2, 0, 7]"
Cul Draiochta,,+353(0)669473141,-10.241932,51.93396424,Kerry,,Republic of Ireland,B&B,1182,B&B_Kerry,3,Div,22,"[0, 1, 1, 4]"
Glenbrook House,https://www.glenbrookhouse.com/,3.5367E+11,-9.494675,52.188597,Kerry,Killarney,Ireland,B&B,758,B&B_Kerry,2,Blk,68,"[2, 9, 2]"
Tailors Lodge,https://www.facebook.com/Tailors-Lodge-Self-Catering-Accommodation-163739220374165/,3.53667E+11,-9.457987,52.221184,Kerry,Castleisland,Republic of Ireland,"Self Catering Accommodation,Welcome Standard",1068,"Self Catering Accommodation,Welcome Standard_Kerry",5,Div,33,"[4, 3, 8, 9]"
Castlemaine House,,+353(0)669767361,-9.702593,52.167968,Kerry,Castlemaine,Republic of Ireland,B&B,756,B&B_Kerry,1,Lot,1,"[4, 1]"
Mount Brandon Lodge,http://www.dingleway.com/accommodation/cloghane-bed-breakfast-mount-brandon-lodge.php?page=details,+353(0)667138117,-10.18171502,52.23621045,Kerry,Cloghane,Republic of Ireland,B&B,1030,B&B_Kerry,5,Sect,3,"[6, 4, 3]"
Coill An Rois,http://www.dinglebb.com,+353(0)669155475,-10.329186,52.216962,Kerry,Dingle,Republic of Ireland,B&B,1074,B&B_Kerry,4,Div,82,"[2, 3, 3]"
Devanes,http://www.devanesdingle.com,+353(0)669151193,-10.27266317,52.14356525,Kerry,Dingle,Republic of Ireland,B&B,870,B&B_Kerry,5,Div,16,"[0, 0, 5, 6]"
Dingle Heights,http://www.dingleheights.com,+353(0)669151543,-10.28024386,52.14446625,Kerry,Dingle,Republic of Ireland,B&B,1042,B&B_Kerry,5,Lot,10,"[2, 6, 3]"
Killfountain Farm,http://www.killfountain.com,+353(0)669151389,-10.298782,52.151266,Kerry,Dingle,Republic of Ireland,B&B,763,B&B_Kerry,1,Lot,56,"[1, 1, 5, 3]"
O'Neill B&B,http://www.oneillsbedandbreakfast.com,+353(0)669151639,-10.265397,52.139375,Kerry,Dingle,Republic of Ireland,B&B,647,B&B_Kerry,5,Sect,12,"[5, 3, 1, 1]"
Blackstones House,http://www.blackstoneshouse.com,+353(0)669760164,-9.879444,52.015517,Kerry,Glencar,Republic of Ireland,B&B,657,B&B_Kerry,3,Blk,65,"[2, 5, 8, 8, 2]"
Ashfield B&B,http://www.ashfieldkenmare.com,+353(0)646642234,-9.569807,51.882638,Kerry,Kenmare,Republic of Ireland,B&B,868,B&B_Kerry,5,Div,54,"[7, 6]"
Kenmare House B&B,http://www.kenmarehousebandb.com,+353(0)646641283,-9.596236383,51.88280604,Kerry,Kenmare,Republic of Ireland,B&B,1142,B&B_Kerry,5,Blk,65,"[5, 1, 7]"
Rockcrest House,http://www.visit-kenmare.com,+353(0)646641248,-9.588864,51.880118,Kerry,Kenmare,Republic of Ireland,B&B,676,B&B_Kerry,3,Sect,49,"[2, 4, 3, 0]"
Druid Cottage,http://www.druidcottagekenmare.com,+353(0)646641803,-9.598037,51.882813,Kerry,Kenmare,Republic of Ireland,B&B,873,B&B_Kerry,2,Div,78,"[9, 4]"
Tara Farm,https://www.tarafarm.ie/tara-farm/,3.53647E+11,-9.596826,51.877904,Kerry,Kenmare,Republic of Ireland,B&B,1023,B&B_Kerry,1,Blk,64,"[0, 3]"
Oldchurch House,http://www.oldchurchkenmare.com,+353(0)646642054,-9.568459,51.884503,Kerry,Kenmare,Republic of Ireland,B&B,721,B&B_Kerry,1,Zone,42,"[3, 9, 4, 7, 7]"
An Bruachan,http://www.bruachan.com,+353(0)646641682,-9.596002,51.887004,Kerry,Kenmare,Republic of Ireland,B&B,1033,B&B_Kerry,2,Lot,2,"[0, 9]"
Doolin Cottage B&B,http://www.doolincottage.net,+353(0)657074762,-9.379064,53.016766,Clare,Doolin,Republic of Ireland,B&B,783,B&B_Clare,5,Blk,28,"[1, 6, 9, 9, 2]"
O'Sheas Ceol Na hAabhann,http://www.osheasceolnahabhann.com,+353(0)646641498,-9.600461,51.8923,Kerry,Kenmare,Republic of Ireland,B&B,1086,B&B_Kerry,3,Div,14,"[6, 9, 1, 6, 0]"
Birchwood,http://www.birchwoodkilgarvan.com,+353(0)646685473,-9.429964,51.906267,Kerry,Kilgarvan,Republic of Ireland,B&B,948,B&B_Kerry,3,Sect,2,"[0, 4, 8]"
Windway House,http://www.bandbireland.com/accommodation/26349/windway-house,+353(0)646632835,-9.5162,52.062191,Kerry,Killarney,Republic of Ireland,B&B,928,B&B_Kerry,2,Div,28,"[3, 4, 3, 7]"
Salmon Leap Farm,http://www.salmonleapfarm.com,+353(0)647753005,-9.329026,51.98486,Kerry,Killarney,Republic of Ireland,B&B,706,B&B_Kerry,3,Div,21,"[0, 5, 8]"
Dunn Court House,,+353(0)646634622,-9.465763,52.054709,Kerry,Killarney,Republic of Ireland,B&B,878,B&B_Kerry,4,Sect,8,"[2, 0, 9]"
Cillcearn House,http://www.cillcearn.com,+353(0)646635670,-9.472381,52.057084,Kerry,Killarney,Republic of Ireland,B&B,1114,B&B_Kerry,5,Zone,31,"[1, 0, 1, 3, 8]"
Alderhaven Country Home,http://www.alderhaven.com,+353(0)646631982,-9.484176,52.057428,Kerry,Killarney,Republic of Ireland,B&B,611,B&B_Kerry,4,Lot,51,"[8, 0]"
Farmstead Lodge,http://homepage.eircom.net/~farmsteadlodge/,+353(0)669761968,-9.75344,52.0661,Kerry,Kilgobnet,Republic of Ireland,B&B,1055,B&B_Kerry,4,Sect,18,"[2, 9, 4, 2]"
St Anthonys Lodge,http://www.best-bb-killarney.com/,+353(0)646631534,-9.489189,52.060523,Kerry,Killarney,Republic of Ireland,B&B,896,B&B_Kerry,5,Blk,28,"[8, 4]"
Reeks View,http://www.reeksview.com,+353(0)646633910,-9.466098,52.070561,Kerry,Killarney,Republic of Ireland,B&B,1032,B&B_Kerry,3,Div,2,"[7, 5, 6]"
Wayside,http://www.waysidekillarney.com,+353(0)646644284,-9.633293,52.053702,Kerry,Killarney,Republic of Ireland,B&B,998,B&B_Kerry,5,Lot,5,"[0, 0, 0]"
Carriglea House and Courtyard Cottages,http://www.carrigleahouse.com,+353(0)646631116,-9.491759067,52.03729079,Kerry,Killarney,Republic of Ireland,"B&B,Welcome Standard",859,"B&B,Welcome Standard_Kerry",2,Div,16,"[5, 7, 8, 1]"
Emerville House,http://www.emervillehouse.com,+353(0)646633342,-9.50488,52.055488,Kerry,Killarney,Republic of Ireland,B&B,785,B&B_Kerry,1,Zone,45,"[9, 6, 5, 1, 1]"
Valley View Farmhouse,http://www.valleyview-farmhouse.com,+353(0)646631206,-9.445725,52.013966,Kerry,Muckross,Republic of Ireland,B&B,977,B&B_Kerry,3,Zone,66,"[6, 4]"
Lios na Manach,,+353(0)646631283,-9.465988138,52.04658479,Kerry,Muckross,Republic of Ireland,B&B,684,B&B_Kerry,1,Zone,79,"[1, 0]"
Gormans,http://www.gormanscountryhome.com,+353(0)646633149,-9.515562,52.109192,Kerry,Killarney,Republic of Ireland,B&B,951,B&B_Kerry,1,Blk,63,"[6, 6, 1, 0]"
Elyod House,http://www.elyodhouse.com,+353(0)646636544,-9.513838,52.052173,Kerry,Killarney,Republic of Ireland,B&B,656,B&B_Kerry,5,Blk,62,"[7, 7]"
Palmgrove House,,+353(0)6821857,-9.439159,52.453005,Kerry,Listowel,Republic of Ireland,B&B,990,B&B_Kerry,4,Zone,93,"[0, 3, 8]"
North County House,https://northcountyhouse.ie/,+353(0)6821238,-9.48338,52.446981,Kerry,Listowel,Republic of Ireland,B&B,977,B&B_Kerry,2,Lot,26,"[7, 4]"
Larkin's Pub Restaurant B&B,http://www.larkinspub.ie,+353(0)669767217,-9.717521,52.145046,Kerry,Milltown,Republic of Ireland,"B&B,Welcome Standard",650,"B&B,Welcome Standard_Kerry",5,Blk,80,"[9, 5]"
Sneem River Lodge,http://www.sneemriverlodge.ie/indexmain.html,+353(0)646645578,-9.906036,51.835713,Kerry,Sneem,Republic of Ireland,B&B,1055,B&B_Kerry,1,Lot,93,"[0, 3, 6, 6]"
Gurrane,,+353(0)667124734,-9.684066,52.281732,Kerry,Tralee,Republic of Ireland,B&B,849,B&B_Kerry,2,Zone,57,"[6, 9]"
Bleach Farmhouse,http://www.bleachfarmhouse.com,+353(0)667121785,-9.699124,52.270683,Kerry,Blennerville,Republic of Ireland,B&B,1072,B&B_Kerry,4,Lot,84,"[2, 9, 6, 0, 1]"
Shangri-la,http://www.shangrilabandbtralee.com,+353(0)667136214,-9.791202446,52.27497876,Kerry,Tralee,Republic of Ireland,B&B,625,B&B_Kerry,2,Blk,14,"[2, 0, 4, 5, 5]"
Golf Links View,http://www.golflinksview.com,+353(0)669474623,-10.179289,51.842345,Kerry,Waterville,Republic of Ireland,B&B,707,B&B_Kerry,4,Div,87,"[9, 7, 0, 0]"
Old Cable Historic House,http://www.oldcablehouse.com,+353(0)669474233,-10.172036,51.831558,Kerry,,Republic of Ireland,"B&B,B&Bs,Historic House",896,"B&B,B&Bs,Historic House_Kerry",5,Blk,56,"[3, 3]"
Klondyke House,http://www.watervillebandb.com,+353(0)669474119,-10.176066,51.834077,Kerry,Waterville,Republic of Ireland,B&B,713,B&B_Kerry,1,Lot,22,"[3, 0, 8, 2, 9]"
Curragh Plains,http://bandbnewbridge.com/,+353(0)45442015,-6.792001,53.149243,Kildare,,Republic of Ireland,B&B,798,B&B_Kildare,1,Blk,7,"[8, 8, 1, 6, 4]"
Eaglehill B&B,http://www.facebook.com/eaglehillbandb,+353(0)45526097,-6.875725,53.091394,Kildare,The Curragh,Republic of Ireland,B&B,997,B&B_Kildare,5,Div,72,"[7, 5, 3, 9]"
Martinstown House,https://www.facebook.com/MartinstownHouse,+353(0)45441269,-6.821903724,53.10741962,Kildare,The Curragh,Republic of Ireland,"B&B,B&Bs,Historic House",686,"B&B,B&Bs,Historic House_Kildare",3,Sect,43,"[8, 2, 8, 3]"
Cloncarlin House,http://www.cloncarlinhouse.com,+353(0)45525722,-7.027147,53.136592,Kildare,Monasterevan,Republic of Ireland,B&B,1007,B&B_Kildare,3,Zone,31,"[8, 3, 2]"
Aran Lodge,http://www.aran-lodge.com,+353(0)2750378,-9.441754,51.723123,Cork,Ballylickey,Republic of Ireland,B&B,662,B&B_Cork,3,Lot,39,"[9, 3, 3, 2, 0]"
Bungalow Farmhouse,http://www.bungalowbb.com,+353(0)568835215,-7.510049,52.724031,Kilkenny,Freshford,Republic of Ireland,B&B,705,B&B_Kilkenny,3,Lot,99,"[2, 8, 1, 6]"
Brandon View House,https://www.facebook.com/Brandonviewhousebedandbreakfast/,+353(0)599724625,-6.901718,52.51184,Kilkenny,Graiguenamanagh,Republic of Ireland,B&B,953,B&B_Kilkenny,4,Blk,43,"[6, 1, 4, 6]"
Grove Farmhouse,http://www.bandbs.ie/bedandbreakfast/grove-farmhouse-bb-kilkenny/,+353(0)567758467,-7.095248,52.471511,Kilkenny,Inistioge,Republic of Ireland,B&B,1076,B&B_Kilkenny,3,Lot,8,"[8, 5, 3]"
The Rise,http://www.therisedunmore.com,+353(0)567764534,-7.255472,52.684079,Kilkenny,Dunmore,Republic of Ireland,B&B,702,B&B_Kilkenny,1,Sect,28,"[1, 4]"
Oldtown Farmhouse,http://www.oldtownfarmhouse.com,+353(0)567728224,-7.210139,52.521353,Kilkenny,Stoneyford,Republic of Ireland,B&B,780,B&B_Kilkenny,4,Blk,15,"[8, 7, 1]"
Roundwood House,http://www.roundwoodhouse.com,+353(0)578732120,-7.525144,53.0273,Laois,Mountrath,Republic of Ireland,"B&B,B&Bs,Historic House",1155,"B&B,B&Bs,Historic House_Laois",4,Sect,68,"[4, 1, 6, 5]"
Ivyleigh House,http://www.ivyleigh.com,+353(0)578622081,-7.300001055,53.035758,Laois,Portlaoise,Republic of Ireland,B&B,1194,B&B_Laois,1,Zone,80,"[4, 7]"
Coolrahnee House,http://www.coolrahneehouseaskeaton.com/,+353(0)61398883,-8.980777,52.603402,Limerick,Askeaton,Republic of Ireland,B&B,949,B&B_Limerick,2,Div,84,"[3, 1, 2]"
Ballingowan House,https://www.bandbireland.com/accommodation/25975/ballingowan-house,+353(0)6962341,-9.031212,52.459825,Limerick,Newcastle West,Republic of Ireland,B&B,868,B&B_Limerick,4,Div,63,"[6, 1, 4, 1, 4]"
Melview Lodge,http://www.melviewlodge.com,+353(0)433345061,-7.791233,53.756633,Longford,,Republic of Ireland,B&B,808,B&B_Longford,4,Zone,77,"[6, 5]"
Achill Isle House,http://www.achillislehouse.com,+353(0)9843355,-10.086042,53.974223,Mayo,Newtown,Republic of Ireland,B&B,968,B&B_Mayo,1,Div,42,"[4, 2, 2, 2]"
West Coast House,http://www.achillwestcoasthousebandb.com/,+353(0)9843317,-10.112938,53.976274,Mayo,,Republic of Ireland,B&B,955,B&B_Mayo,1,Div,63,"[4, 6, 0]"
Templecarrig House,https://www.templecarrighouse.com/,3.5395E+11,-9.221627,53.572568,Mayo,Ballinrobe,Ireland,B&B,777,B&B_Mayo,3,Zone,11,"[8, 9, 9]"
The Yellow Rose B&B,http://www.bandbireland.com/accommodation/26539/the-yellow-rose-b-b,+353(0)9643125,-9.561145,54.307651,Mayo,Belderrig,Republic of Ireland,B&B,613,B&B_Mayo,3,Blk,54,"[1, 1, 1]"
Hillcrest House,,+353(0)9783494,-9.740963,54.144608,Mayo,Bangor Erris,Republic of Ireland,B&B,691,B&B_Mayo,5,Zone,56,"[8, 8, 7, 3, 4]"
Doogarry House,http://www.doogarryhouse.com,+353(0)949021793,-9.26301,53.8526,Mayo,Castlebar,Republic of Ireland,B&B,1176,B&B_Mayo,3,Lot,4,"[8, 5, 8, 3, 4]"
Granuaile House,http://granuailehouse.islandswest.ie/,+353(0)9826250,-9.952312,53.799888,Mayo,Clare Island,Republic of Ireland,B&B,851,B&B_Mayo,5,Div,55,"[3, 7, 4, 2, 2]"
Valley Lodge,http://www.valleylodgeaccommodation.com,+353(0)949365180,-9.058039998,53.78425129,Mayo,Claremorris,Republic of Ireland,B&B,889,B&B_Mayo,2,Zone,72,"[4, 3, 7, 0]"
Casa Mia,,+353(0)949371405,-8.995134,53.721368,Mayo,Claremorris,Republic of Ireland,B&B,880,B&B_Mayo,3,Sect,37,"[9, 6]"
Nymphsfield House,http://www.nymphsfieldhouse.com,+353(0)949546320,-9.272576,53.544615,Mayo,Cong,Republic of Ireland,B&B,1070,B&B_Mayo,1,Blk,54,"[0, 5, 4, 5]"
Hill View Farm,,+353(0)949546500,-9.290112,53.550315,Mayo,Cong,Republic of Ireland,B&B,639,B&B_Mayo,3,Lot,29,"[5, 5]"
Hazel Grove,http://www.hazelgrove.net,+353(0)949546060,-9.292407,53.556758,Mayo,Cong,Republic of Ireland,B&B,649,B&B_Mayo,1,Sect,27,"[0, 9, 7]"
Aisling House,https://www.bandbireland.com/accommodation/26090/aisling-house,3.53949E+11,-8.910092,53.793525,Mayo,Knock,Republic of Ireland,B&B,765,B&B_Mayo,3,Zone,13,"[7, 6, 1, 4]"
Ponderosa,http://www.ponderosamayo.com,+353(0)9866440,-9.801918,53.763059,Mayo,Louisburgh,Republic of Ireland,B&B,892,B&B_Mayo,2,Zone,33,"[2, 9, 0, 3, 3]"
The Three Arches,http://www.thethreearchesbandb.com,+353(0)9866484,-9.859709,53.761951,Mayo,Louisburgh,Republic of Ireland,B&B,1003,B&B_Mayo,1,Sect,80,"[1, 2, 6, 2]"
Cuaneen House,http://www.cuaneenhouse.com,+353(0)9866460,-9.829117,53.768128,Mayo,Louisburgh,Republic of Ireland,B&B,894,B&B_Mayo,1,Zone,93,"[8, 3, 5, 3, 3]"
Elderberry,https://www.bandbireland.com/accommodation/28063/elderberry-b-b,3539826374,-9.521234,53.804907,Mayo,Westport,Republic of Ireland,B&B,865,B&B_Mayo,3,Sect,63,"[2, 1, 2, 9]"
Drummin House,,+353(0)9827427,-9.527038,53.797612,Mayo,Westport,Republic of Ireland,B&B,1163,B&B_Mayo,5,Sect,62,"[3, 6, 1]"
Woodbine Cottage,http://www.woodbinecottagewestport.com,+353(0)9829143,-9.522541148,53.80425582,Mayo,Westport,Republic of Ireland,B&B,696,B&B_Mayo,1,Zone,61,"[1, 9, 9]"
Seapoint House,,+353(0)9841254,-9.60346,53.845737,Mayo,Westport,Republic of Ireland,B&B,943,B&B_Mayo,3,Div,48,"[2, 6, 6, 8, 1]"
Brooklodge,http://www.brooklodgebandb.com,+353(0)9826654,-9.521235,53.805861,Mayo,Westport,Republic of Ireland,B&B,925,B&B_Mayo,2,Sect,42,"[1, 5, 8, 0]"
Lurgan House,http://www.bandbwestport.com,+353(0)9827126,-9.534916914,53.79263211,Mayo,Westport,Republic of Ireland,B&B,884,B&B_Mayo,5,Sect,62,"[8, 0]"
Drumhowan Country House,,+353(0)429745924,-6.824795066,54.09783861,Monaghan,Castleblayney,Republic of Ireland,"Self Catering Accommodation,Welcome Standard",1085,"Self Catering Accommodation,Welcome Standard_Monaghan",3,Div,78,"[5, 3, 8, 8]"
Hilton Park,http://www.facebook.com/hiltonpark,+353(0)4756007,-7.236389829,54.14330033,Monaghan,Scotshouse,Republic of Ireland,"B&B,B&Bs,Historic House",760,"B&B,B&Bs,Historic House_Monaghan",5,Div,41,"[0, 1, 1]"
Gleneven House,http://www.gleneven.com,+353(0)429378294,-6.572569,54.001937,Monaghan,Inniskeen,Republic of Ireland,B&B,1173,B&B_Monaghan,2,Sect,57,"[5, 6, 2, 8, 7]"
Dun Cromain Bed and Breakfast,http://www.duncromain.com,3.53579E+11,-7.997331,53.189927,Offaly,Banagher,Republic of Ireland,B&B,799,B&B_Offaly,1,Blk,47,"[4, 6, 5, 3, 5]"
The Ring Farmhouse,http://www.irishfarmhouseholiday.com,3.53579E+11,-7.882425,53.078748,Offaly,Birr,Republic of Ireland,B&B,927,B&B_Offaly,3,Blk,29,"[9, 7, 7]"
Littlewood,http://www.littlewood.ie,3.53579E+11,-7.517074,53.312325,Offaly,Durrow,Republic of Ireland,B&B,912,B&B_Offaly,4,Blk,29,"[4, 9, 2, 5]"
Seashore,http://www.seashoreguests.com,+353(0)719167827,-8.571816,54.209008,Sligo,Ballisodare,Republic of Ireland,B&B,1110,B&B_Sligo,5,Sect,8,"[2, 5]"
Ballincrone,,+353(0)719130110,-8.527820568,54.20681619,Sligo,Ballisodare,Republic of Ireland,B&B,863,B&B_Sligo,5,Div,44,"[9, 6, 4]"
Millhouse,http://www.sligo-accommodation.com,+353(0)719183449,-8.513395,54.085791,Sligo,Ballymote,Republic of Ireland,B&B,771,B&B_Sligo,5,Zone,71,"[6, 7, 2]"
Mountain Inn,http://www.mountaininnireland.com,+353(0)719167225,-8.605238,54.171354,Sligo,Coolaney,Republic of Ireland,B&B,612,B&B_Sligo,4,Lot,68,"[5, 0, 9, 5]"
Benbulben Farm,http://www.benbulbenfarmhouse.com,+353(0)719173956,-8.487565497,54.35270305,Sligo,Drumcliffe,Republic of Ireland,B&B,818,B&B_Sligo,2,Div,98,"[6, 6]"
Bansha House,http://www.banshahouse.com,+353(0)6254194,-8.061166,52.455579,Tipperary,Bansha,Republic of Ireland,B&B,1096,B&B_Tipperary,3,Div,4,"[0, 4, 1, 5, 5]"
Lismacue House,http://www.lismacue.com,+353(0)6254106,-8.050407,52.446922,Tipperary,Bansha,Republic of Ireland,"B&B,B&Bs,Historic House",605,"B&B,B&Bs,Historic House_Tipperary",1,Blk,76,"[9, 5, 4]"
Foxford Farm House,http://www.foxfordfarmhouse.net/,+353(0)6254552,-8.093882,52.438076,Tipperary,Foxford,Republic of Ireland,B&B,1138,B&B_Tipperary,3,Lot,79,"[2, 8]"
Lacken Lodge,http://www.lackenlodge.com,35361379083,-8.436704,52.748144,Tipperary,Birdhill,Republic of Ireland,B&B,926,B&B_Tipperary,2,Lot,44,"[9, 5, 5]"
Carrigeen Castle,http://www.carrigeencastle.com,+353(0)527441370,-7.931886,52.37614,Tipperary,Cahir,Republic of Ireland,B&B,684,B&B_Tipperary,1,Zone,29,"[5, 0, 0]"
The Rectory,,+353(0)527441406,-7.921723,52.379114,Tipperary,Cahir,Republic of Ireland,B&B,781,B&B_Tipperary,2,Zone,36,"[5, 5, 4]"
Tinsley House,http://www.tinsleyhouse.com,+353(0)527441947,-7.923976,52.375332,Tipperary,Cahir,Republic of Ireland,B&B,932,B&B_Tipperary,3,Zone,68,"[7, 6, 0]"
Rockville House,,+353(0)6261760,-7.888021,52.518878,Tipperary,Cashel,Republic of Ireland,B&B,789,B&B_Tipperary,2,Sect,86,"[7, 7, 2]"
Benuala,http://www.dirl.com/tipperary/benuala.htm,+353(0)526122158,-7.73042,52.351151,Tipperary,Clonmel,Republic of Ireland,B&B,665,B&B_Tipperary,5,Sect,64,"[6, 4, 6, 8, 2]"
Hawthorn View,,+353(0)50421710,-7.785201859,52.63916747,Tipperary,Thurles,Republic of Ireland,B&B,1000,B&B_Tipperary,3,Lot,51,"[4, 0]"
Clonmore House,http://www.clonmorehouse.com,+353(0)6251637,-8.172023,52.470373,Tipperary,Tipperary Town,Republic of Ireland,B&B,1004,B&B_Tipperary,5,Div,65,"[9, 6, 9, 0, 6]"
Glasha,http://www.glashafarmhouse.com,+353(0)526136108,-7.759022459,52.27589874,Waterford,,Republic of Ireland,B&B,671,B&B_Waterford,4,Blk,7,"[2, 3, 5]"
Avon Lodge B&B,http://www.facebook.com/AvonlodgeBandB/,+353(0)51385775,-6.999244,52.155725,Waterford,Dunmore East,Republic of Ireland,B&B,769,B&B_Waterford,1,Lot,61,"[1, 6, 9, 0]"
Lough Bishop House,http://www.loughbishophouse.com,3.5345E+11,-7.2647309,53.6342953,Westmeath,Collinstown,Ireland,"B&B,B&Bs,Historic House",746,"B&B,B&Bs,Historic House_Westmeath",2,Blk,5,"[6, 3, 7, 6, 7]"
Hounslow House,http://www.hounslowhouse.com/,3.5345E+11,-7.229234,53.691573,Westmeath,Fore,Republic of Ireland,B&B,996,B&B_Westmeath,4,Sect,95,"[0, 6]"
Marlinstown Court,http://www.marlinstowncourt.com,3.53449E+11,-7.305911,53.522327,Westmeath,Mullingar,Republic of Ireland,B&B,1038,B&B_Westmeath,3,Lot,89,"[2, 4, 7]"
Glendine Country House,http://www.glendinehouse.com,+353(0)51389500,-6.949037,52.242608,Wexford,Arthurstown,Republic of Ireland,B&B,1036,B&B_Wexford,2,Blk,51,"[9, 4]"
Marsh Mere Lodge,http://www.marshmerelodge.com,+353(0)51389186,-6.956033,52.243115,Wexford,Arthurstown,Republic of Ireland,B&B,1164,B&B_Wexford,3,Lot,38,"[0, 8]"
Stone Lodge Bed and Breakfast,http://www.stonelodgebandb.com/,+353(0)539425765,-6.232746,52.636211,Wexford,Courtown,Republic of Ireland,B&B,1061,B&B_Wexford,5,Zone,73,"[4, 6]"
Blackrath Farmhouse,http://www.blackrathfarmhouse.com,+353(0)45403247,-6.784089,53.050212,Kildare,Colbinstown,Republic of Ireland,B&B,792,B&B_Kildare,2,Sect,64,"[2, 1, 7, 4]"
O'Leary's Farm House B&B,http://www.olearysfarm.com,+353(0)539133134,-6.329722,52.228013,Wexford,Kilrane,Republic of Ireland,B&B,664,B&B_Wexford,1,Zone,70,"[1, 5]"
Rathaspeck Manor,http://www.rathaspeckmanor.ie,+353(0)539141672,-6.498952341,52.3063545,Wexford,,Republic of Ireland,B&B,969,B&B_Wexford,2,Zone,52,"[3, 1]"
Killurin Lodge,http://www.killurinlodge.com,+353(0)539128013,-6.579390841,52.38547756,Wexford,Killurin,Republic of Ireland,B&B,1150,B&B_Wexford,5,Zone,24,"[6, 7, 0, 3, 2]"
Glen Hill,http://www.glenhillbandb.com,+353(0)539120015,-6.530966,52.339869,Wexford,Barntown,Republic of Ireland,B&B,1186,B&B_Wexford,4,Lot,8,"[8, 2, 7, 5]"
Portumna House,http://www.portumnahouse.com,+353(0)909741078,-8.224066138,53.09467081,Galway,Portumna,Republic of Ireland,B&B,738,B&B_Galway,5,Zone,29,"[0, 9, 4, 2, 1]"
Mount Usher View,http://www.mountusherview.com,+353(0)40440543,-6.107553,53.009328,Wicklow,Ashford,Republic of Ireland,B&B,742,B&B_Wicklow,5,Zone,53,"[8, 1, 4, 7, 5]"
Carriglen,http://www.carriglen.com,+353(0)40440627,-6.12027,53.015609,Wicklow,Ashford,Republic of Ireland,B&B,622,B&B_Wicklow,1,Zone,42,"[3, 3]"
Ballinclea House,http://www.ballincleahouse.com,+353(0)40447118,-6.093935,52.891845,Wicklow,Brittas Bay,Republic of Ireland,B&B,684,B&B_Wicklow,2,Lot,51,"[9, 2, 7]"
Tynte House,http://www.tyntehouse.com/welcome.htm,+353(0)45401561,-6.701445,53.058191,Wicklow,,Republic of Ireland,B&B,933,B&B_Wicklow,1,Lot,28,"[7, 7, 1, 1, 7]"
Ferndale,http://www.ferndalehouse.com,+353(0)12863518,-6.169612,53.192657,Wicklow,Enniskerry,Republic of Ireland,B&B,928,B&B_Wicklow,1,Sect,93,"[7, 4, 5, 0]"
Coolakay House,http://www.coolakayhouse.ie,+353(0)12862423,-6.18816,53.166686,Wicklow,Enniskerry,Republic of Ireland,B&B,822,B&B_Wicklow,5,Zone,37,"[5, 1, 1]"
Glen Na Smole,,+353(0)40467945,-6.063022,52.970798,Wicklow,,Republic of Ireland,B&B,786,B&B_Wicklow,5,Zone,84,"[2, 9]"
Sea Crest Farmhouse,http://www.seacrest-clare.com,+353(0)657087544,-9.435978,52.810292,Clare,Quilty,Republic of Ireland,B&B,1098,B&B_Clare,1,Sect,39,"[9, 2, 5, 8]"
Glengorse,,+353(0)40467926,-6.050137,52.978237,Wicklow,,Republic of Ireland,B&B,876,B&B_Wicklow,4,Blk,44,"[6, 6, 8]"
Fortfield Farm,http://www.fortfieldfarm.com,+353(0)659052533,-9.391504,52.635218,Clare,Killimer,Republic of Ireland,B&B,1085,B&B_Clare,3,Sect,60,"[6, 5, 8, 6, 3]"
Brooklane Hotel,http://www.brooklanehotel.com,+353(0)646642077,-9.591799,51.883586,Kerry,Kenmare,Republic of Ireland,Hotel,1178,Hotel_Kerry,1,Div,27,"[5, 2, 5, 6]"
Orchard View Holiday Home,,3.53496E+11,-7.039066079,54.05297359,Cavan,Cootehill,Republic of Ireland,Self Catering Accommodation,790,Self Catering Accommodation_Cavan,5,Sect,22,"[5, 1, 9, 5, 2]"
Cliff View,http://www.doolinselfcatering.com,+353(0)657074209,-9.388375653,53.01372579,Clare,Doolin,Republic of Ireland,Self Catering Accommodation,721,Self Catering Accommodation_Clare,5,Lot,38,"[3, 3, 8, 8, 5]"
Country Cottages,http://rayscottages.clareireland.net/,+353(0)657077071,-9.124042,53.128182,Clare,Ballyvaughan,Republic of Ireland,Self Catering Accommodation,1172,Self Catering Accommodation_Clare,3,Lot,80,"[8, 1, 7]"
Strasburgh Manor,http://www.strasburghmanor.com,+353(0)656839125,-9.049723,52.822419,Clare,Inch,Republic of Ireland,Self Catering Accommodation,981,Self Catering Accommodation_Clare,4,Blk,15,"[8, 4, 8, 0]"
Beara Holiday Homes,http://www.bearaholidayhomes.com,+353(0)2770219,-10.039142,51.627989,Cork,Allihies,Republic of Ireland,Self Catering Accommodation,774,Self Catering Accommodation_Cork,2,Lot,44,"[0, 6, 1, 9, 7]"
Lahanaght House,http://www.lahanaghthouse.com,+353(0)2831293,-9.199659,51.651546,Cork,Drimoleague,Republic of Ireland,Self Catering Accommodation,973,Self Catering Accommodation_Cork,4,Div,67,"[8, 2]"
Rolf's Holiday Cottages,https://rolfscountryhouse.com/cottages/,+353(0)2820289,-9.368592,51.479594,Cork,Baltimore,Republic of Ireland,Self Catering Accommodation,909,Self Catering Accommodation_Cork,3,Lot,70,"[0, 1, 2, 5]"
Bere Island Holiday Home,http://www.bereislandholidayhomes.com/,+353(0)868845709,-9.829112,51.635369,Cork,Ardagh,Republic of Ireland,Self Catering Accommodation,1144,Self Catering Accommodation_Cork,5,Zone,44,"[8, 1, 7, 0]"
Ballinacurra House,http://www.ballinacurra.com,+353(0)214779040,-8.556499,51.712163,Cork,Ballinacurra,Republic of Ireland,Self Catering Accommodation,753,Self Catering Accommodation_Cork,1,Blk,9,"[1, 1, 5]"
25 Silver Strand,,+353(0)214381791,-8.021015,51.831429,Cork,Ballycotton,Republic of Ireland,Self Catering Accommodation,1195,Self Catering Accommodation_Cork,1,Sect,2,"[6, 8, 5, 0, 3]"
Dunmanus Cottage,https://dunmanuscottage.ie,+353(0)214381634,-9.542522,51.60265,Cork,Durrus,Republic of Ireland,Self Catering Accommodation,1162,Self Catering Accommodation_Cork,5,Sect,47,"[0, 0, 8, 0, 9]"
Number 4 Castle End,http://www.baltimoreyachtcharters.com,+353(0)2820160,-9.373144,51.483972,Cork,Baltimore,Republic of Ireland,Self Catering Accommodation,708,Self Catering Accommodation_Cork,2,Zone,81,"[6, 5, 0, 4, 8]"
Laffertys Holiday Homes,,+353(0)749136247,-7.917132,55.171784,Donegal,Dunfanaghy,Republic of Ireland,Self Catering Accommodation,698,Self Catering Accommodation_Donegal,2,Zone,3,"[4, 8, 7, 0, 6]"
Donegal Estuary Holiday Homes,http://www.donegalestuaryholidayhomes.com,+353(0)749721773,-8.1413,54.646748,Donegal,Donegal Town,Republic of Ireland,Self Catering Accommodation,920,Self Catering Accommodation_Donegal,4,Sect,88,"[5, 7, 8, 5]"
Pine View,https://www.facebook.com/pages/Pine-View-Self-Catering-Donegal-Town/123284207686973,+353(0)749722354,-8.168522677,54.66590544,Donegal,Mountcharles,Republic of Ireland,Self Catering Accommodation,626,Self Catering Accommodation_Donegal,1,Div,67,"[9, 9, 6]"
Arasain Bhalor,https://www.facebook.com/ArasainBhalor/,+353(0)749162787,-8.103158,55.136451,Donegal,Falcarragh,Republic of Ireland,Self Catering Accommodation,779,Self Catering Accommodation_Donegal,3,Div,1,"[1, 4, 1, 5]"
Seabreeze & Kinnegar Cottages,http://www.rathmullanholidayhomes.com,+353(0)749158224,-7.555494,55.091508,Donegal,Rathmullan,Republic of Ireland,Self Catering Accommodation,861,Self Catering Accommodation_Donegal,2,Sect,35,"[2, 9, 1, 0, 9]"
Millstone Cottages,http://www.millstonecottages.com,3.53749E+11,-7.667255,55.107676,Donegal,Milford,Republic of Ireland,Self Catering Accommodation,1182,Self Catering Accommodation_Donegal,1,Blk,22,"[7, 7]"
Kerry Cottages,http://www.kerrycottages.com,+353(0)12806336,-10.00005929,52.24414389,Kerry,Castlegregory,Republic of Ireland,Self Catering Accommodation,1196,Self Catering Accommodation_Kerry,5,Sect,94,"[0, 3, 0]"
Dromatouk Cottage,,+353(0)646641608,-9.542951,51.886501,Kerry,Kenmare,Republic of Ireland,Self Catering Accommodation,691,Self Catering Accommodation_Kerry,1,Lot,55,"[8, 9, 8, 7]"
Dan's Cottage,http://www.danscottage.com,+353(0)646641283,-9.595918878,51.88279351,Kerry,Kenmare,Republic of Ireland,Self Catering Accommodation,1135,Self Catering Accommodation_Kerry,1,Sect,33,"[7, 6, 9, 3, 4]"
Portmagee Seaside Cottages,https://www.facebook.com/PortmageeSeasideCottages,+353(0)669477151,-10.33125162,51.88933349,Kerry,Portmagee,Republic of Ireland,Self Catering Accommodation,654,Self Catering Accommodation_Kerry,4,Div,28,"[3, 2, 1, 2, 5]"
Ivy House,http://www.selfcateringvalentiaisland.com,3.53876E+11,-10.288855,51.920992,Kerry,Knightstown,Republic of Ireland,Self Catering Accommodation,1049,Self Catering Accommodation_Kerry,5,Lot,56,"[1, 6, 7, 8, 7]"
Westland Holiday Homes,,+353(0)876370737,-9.770466852,51.80330693,Kerry,Tuosist,Republic of Ireland,Self Catering Accommodation,1108,Self Catering Accommodation_Kerry,1,Lot,1,"[4, 9]"
Courtyard Cottages,http://www.countykerryholidays.com,3.53667E+11,-9.73188,52.246466,Kerry,Tralee Town Area West,Republic of Ireland,Self Catering Accommodation,1135,Self Catering Accommodation_Kerry,4,Zone,26,"[6, 9, 6, 0, 9]"
Beech Lodge (Kildare),http://www.ballindrumfarm.com,+353(0)598626294,-6.884795236,53.00962152,Kildare,Athy,Republic of Ireland,Self Catering Accommodation,734,Self Catering Accommodation_Kildare,3,Lot,17,"[3, 2]"
Ashwell Cottage,http://www.ashwellcottage.com,35345879167,-6.611201,53.231344,Kildare,Johnstown,Ireland,Self Catering Accommodation,1136,Self Catering Accommodation_Kildare,5,Blk,62,"[0, 6, 8, 7]"
The Coach Yard,http://www.blanchville.ie,+353(0)567727197,-7.132535419,52.62807235,Kilkenny,Kilkenny City,Republic of Ireland,Self Catering Accommodation,669,Self Catering Accommodation_Kilkenny,1,Div,67,"[8, 3, 6]"
Ballykeeffe Farmhouse,http://www.ballykeeffefarmhouse.com,+353(0)567769265,-7.380808,52.608284,Kilkenny,Kilmanagh,Republic of Ireland,Self Catering Accommodation,911,Self Catering Accommodation_Kilkenny,5,Div,47,"[0, 0, 1, 9]"
Brielle House,http://www.briellehouse.ie,+353(0)578644329,-7.324429,53.112562,Laois,Irishtown,Republic of Ireland,Self Catering Accommodation,882,Self Catering Accommodation_Laois,4,Zone,14,"[4, 9, 0, 9, 2]"
Springfield Castle,https://www.facebook.com/springfieldcastleireland,+353(0)6383162,-8.955724,52.351824,Limerick,Drumcollogher,Republic of Ireland,Self Catering Accommodation,789,Self Catering Accommodation_Limerick,5,Div,37,"[7, 3]"
Bunlough Strand Bungalow,http://www.bunloughstrandbungalow.com,+353(0)949025578,-9.898854842,53.70538357,Mayo,Killadoon,Republic of Ireland,Self Catering Accommodation,613,Self Catering Accommodation_Mayo,2,Zone,84,"[7, 3, 7]"
Achill Cottages,https://www.facebook.com/achillcottages,+353(0)9845200,-9.945846678,53.93164916,Mayo,,Republic of Ireland,Self Catering Accommodation,1063,Self Catering Accommodation_Mayo,5,Sect,21,"[0, 3]"
Acorn Cottage and Clew Bay Cottage,https://mulranny.ie/14a-acorn-cottage-mulranny,+353(0)14562273,-9.778022,53.906622,Mayo,Mulranny,Republic of Ireland,Self Catering Accommodation,801,Self Catering Accommodation_Mayo,4,Lot,17,"[2, 1, 7, 4]"
12 Mulranny Holiday Village,,+353(0)949023877,-9.781678,53.907326,Mayo,Mulranny,Republic of Ireland,Self Catering Accommodation,997,Self Catering Accommodation_Mayo,1,Zone,12,"[2, 0, 0]"
Dillons Cottage,http://www.dillonscottage.com,+353(0)861690154,-7.003174,54.125124,Monaghan,Rockcorry,Republic of Ireland,Self Catering Accommodation,846,Self Catering Accommodation_Monaghan,5,Lot,81,"[0, 2, 9, 3]"
The Waters Edge,,+353(0)9649255,-8.756791,54.269674,Sligo,Templeboy,Republic of Ireland,Self Catering Accommodation,824,Self Catering Accommodation_Sligo,4,Lot,12,"[3, 9, 8, 4]"
Beach House,,+353(0)91755636,-9.098678,54.210825,Sligo,Enniscrone,Republic of Ireland,Self Catering Accommodation,1132,Self Catering Accommodation_Sligo,2,Zone,58,"[4, 9, 3, 8]"
Orchard Cottage,https://selfcater.com/orchard-cottage-10,+353(0)719169545,-8.495963,54.232942,Sligo,Carraroe,Republic of Ireland,Self Catering Accommodation,656,Self Catering Accommodation_Sligo,3,Zone,99,"[6, 3, 8, 7]"
Bansha Castle,http://www.banshacastle.com,+353(0)6254187,-8.070331,52.449206,Tipperary,Bansha,Republic of Ireland,Self Catering Accommodation,1042,Self Catering Accommodation_Tipperary,2,Lot,64,"[8, 1, 8, 8, 2]"
Cornode - Lakeside,http://www.escapetoloughderg.net,+353(0)6733376,-8.369672455,52.90403938,Tipperary,Garrykennedy,Republic of Ireland,Self Catering Accommodation,1048,Self Catering Accommodation_Tipperary,3,Div,41,"[5, 3, 2, 3, 0]"
Fuchsia Lane Farm,https://www.facebook.com/FuchsiaLaneFarm,+353(0)6722041,-8.1747063,53.0399738,Tipperary,Terryglass,Ireland,Self Catering Accommodation,828,Self Catering Accommodation_Tipperary,5,Zone,21,"[7, 6, 5, 3]"
Salterbridge Gatelodge - The Irish Landmark Trust,http://www.irishlandmark.com/property/salterbridge-gatelodge/,+353(0)16704733,-7.862920247,52.15120772,Waterford,Cappoquin,Republic of Ireland,"Self Catering Accommodation,Welcome Standard",757,"Self Catering Accommodation,Welcome Standard_Waterford",5,Div,1,"[8, 0, 3, 9]"
Mill Road Farm,http://www.millroadfarm.com,+353(0)539129633,-6.568144,52.186498,Wexford,Kilmore Quay,Republic of Ireland,Self Catering Accommodation,603,Self Catering Accommodation_Wexford,2,Blk,16,"[9, 1, 4, 1, 8]"
12 Glenmalure Pines,http://www.glenmalurepines.com,+44(0)1227371482,-6.297038,52.933304,Wicklow,Greenane,Republic of Ireland,Self Catering Accommodation,1163,Self Catering Accommodation_Wicklow,5,Div,95,"[2, 0, 7, 8]"
Wicklow Head Lighthouse - Irish Landmark Trust,http://www.irishlandmark.com/property/wicklow-head-lighthouse/,+353(0)16704733,-5.998079892,52.9653522,Wicklow,Wicklow Town,Republic of Ireland,"Self Catering Accommodation,Welcome Standard",1169,"Self Catering Accommodation,Welcome Standard_Wicklow",3,Blk,15,"[9, 8, 7, 8, 9]"
Lakeshore House,http://www.lakeshoreconnemara.com,+353(0)949548311,-9.393496,53.520169,Galway,Clonbur,Republic of Ireland,B&B,744,B&B_Galway,4,Zone,2,"[7, 8, 1]"
Rockmount,http://www.rockmount-bnb.com,+353(0)667124507,-9.665978955,52.26251181,Kerry,Tralee,Republic of Ireland,B&B,619,B&B_Kerry,4,Blk,81,"[3, 1, 1, 1]"
Leim Siar,http://www.leimsiar.com,+353(0)9785004,-10.070087,54.098867,Mayo,Blacksod,Republic of Ireland,B&B,673,B&B_Mayo,3,Zone,42,"[7, 1, 6, 6, 5]"
Abbey House B&B,http://www.abbeyhouse.ie,+353(0)539124408,-6.464699,52.340387,Wexford,,Republic of Ireland,B&B,640,B&B_Wexford,3,Blk,36,"[9, 5, 6, 5]"
Desmond House,http://www.desmondhousekinsale.com,+353(0)214773575,-8.524914009,51.70689208,Cork,Kinsale,Republic of Ireland,B&B,1099,B&B_Cork,3,Sect,72,"[8, 4, 7]"
Church View B&B,http://www.thechurchview.com,+353(0)719182935,-8.517297524,53.993951,Sligo,Ballymote,Republic of Ireland,B&B,1136,B&B_Sligo,5,Lot,52,"[6, 7, 7, 5]"
The Blue Door,http://www.bluedoor.ie,+353(0)539121047,-6.464576,52.340911,Wexford,,Republic of Ireland,B&B,692,B&B_Wexford,2,Zone,91,"[5, 3, 7, 8]"
Monart Destination Spa,http://www.monart.ie,+353(0)539238999,-6.611292,52.508204,Wexford,Enniscorthy,Republic of Ireland,Hotel,1048,Hotel_Wexford,2,Lot,47,"[7, 8, 3, 0]"
The Arches Hotel,http://www.thearcheshotel.ie,+353(0)91739000,-8.943129,53.344755,Galway,Claregalway,Republic of Ireland,Hotel,707,Hotel_Galway,2,Div,71,"[7, 8, 5]"
Seabreak,,+44(0)1625829286,-9.938185242,52.05848462,Kerry,Glenbeigh,Republic of Ireland,Self Catering Accommodation,820,Self Catering Accommodation_Kerry,1,Blk,88,"[0, 6, 6, 5, 7]"
Otway Beach Cottages - Cottage,,+353(0)876172690,-7.531528,55.133908,Donegal,Rathmullan,Republic of Ireland,Self Catering Accommodation,960,Self Catering Accommodation_Donegal,2,Sect,46,"[5, 6, 7]"
White Strand B&B,https://www.facebook.com/WhitestrandBnB/,+353(0)749370335,-7.340922,55.353889,Donegal,Malin Head,Republic of Ireland,B&B,1032,B&B_Donegal,1,Zone,29,"[3, 4]"
The Holiday Hotel,http://www.booking.com/hotel/ie/holiday.en-gb.html,+353(0)91522518,-9.075632,53.259955,Galway,Galway City,Republic of Ireland,Hotel,1125,Hotel_Galway,1,Zone,97,"[3, 3]"
The Huntsman Inn,http://www.huntsmaninn.com,+353(0)91562849,-9.033889,53.281333,Galway,Galway City,Republic of Ireland,Hotel,626,Hotel_Galway,4,Lot,23,"[4, 5, 6]"
Ballyliffin Lodge & Spa,http://www.ballyliffinlodge.com,+353(0)749378200,-7.395356,55.280175,Donegal,Ballyliffin,Republic of Ireland,Hotel,718,Hotel_Donegal,1,Lot,4,"[8, 4, 7]"
The Glasshouse,http://www.theglasshouse.ie,+353(0)719194300,-8.474761,54.272476,Sligo,Sligo Town,Republic of Ireland,Hotel,768,Hotel_Sligo,3,Sect,58,"[1, 4]"
Brú Hostel,http://www.bruhostel.com,+353(0)214559667,-8.466058,51.901447,Cork,Cork City,Republic of Ireland,Hostel,786,Hostel_Cork,4,Sect,98,"[4, 1, 4]"
Pier Head Hotel Spa and Leisure Centre,http://www.pierheadhotel.ie,+353(0)719166171,-8.447591,54.466896,Sligo,Mullaghmore,Republic of Ireland,Hotel,1199,Hotel_Sligo,4,Sect,9,"[7, 2, 3, 5]"
The Fáilte Hotel,http://www.failtekillarney.com,+353(0)646633404,-9.506824,52.059407,Kerry,Killarney,Republic of Ireland,Hotel,1067,Hotel_Kerry,3,Blk,85,"[7, 3, 6, 8]"
Bunratty Manor Hotel,https://www.facebook.com/bunrattym,+353(0)61707984,-8.818053,52.698579,Clare,Bunratty,Republic of Ireland,Hotel,792,Hotel_Clare,1,Div,83,"[8, 3, 3]"
The Shamrock Inn Hotel,http://www.shamrockinn.ie,+353(0)657081700,-9.345894,52.93225,Clare,Lahinch,Republic of Ireland,Hotel,1184,Hotel_Clare,5,Lot,92,"[6, 5, 2, 0]"
The Atlantic Hotel,http://www.atlantichotel.ie,+353(0)657081049,-9.345873,52.932362,Clare,Lahinch,Republic of Ireland,Hotel,900,Hotel_Clare,5,Lot,42,"[8, 8, 5, 8, 4]"
Óstán Ceann Sibéal,http://www.ceannsibealhotel.com/,+353(0)669156433,-10.406964,52.165774,Kerry,Ballyferriter,Republic of Ireland,Hotel,900,Hotel_Kerry,4,Zone,26,"[1, 2]"
Pondlodge Holiday Cottages,https://www.westlodgehotel.ie/accommodation/,+353(0)2750360,-9.474883,51.672468,Cork,Bantry,Republic of Ireland,Self Catering Accommodation,860,Self Catering Accommodation_Cork,1,Div,51,"[9, 3, 6]"
Newbury Hotel,http://www.thenewburyhotel.com,3.53449E+11,-7.346971,53.5242958,Westmeath,Mullingar,Ireland,Hotel,686,Hotel_Westmeath,1,Lot,15,"[6, 5, 1]"
Cahermore Holiday Village,,+353(0)9621277,-9.091896,54.220057,Sligo,Enniscrone,Republic of Ireland,Self Catering Accommodation,1161,Self Catering Accommodation_Sligo,2,Zone,84,"[1, 8, 7]"
Anglers Rest Hotel,http://www.anglersresthotel.com,+353(0)9335528,-9.106682,53.469495,Galway,Headford,Republic of Ireland,Hotel,608,Hotel_Galway,1,Lot,66,"[8, 2, 7, 1, 9]"
Coachmans Hotel,http://www.thecoachmans.com,+353(0)646641311,-9.583693,51.879458,Kerry,Kenmare,Republic of Ireland,Hotel,704,Hotel_Kerry,5,Sect,48,"[6, 9, 8, 8, 1]"
Cooneys Hotel,http://www.cooneyshotel.com,+353(0)906438180,-7.764421055,53.56386916,Longford,Ballymahon,Republic of Ireland,Hotel,738,Hotel_Longford,2,Lot,52,"[9, 2]"
Salthill Caravan Park,http://www.salthillcaravanpark.com,+353(0)91523972,-9.10477,53.257153,Galway,Salthill,Republic of Ireland,Camping,767,Camping_Galway,2,Blk,71,"[0, 6, 8]"
Valentia Holiday Homes,http://www.rentacottage.ie/self-catering/Kerry/Valencia/Glor_na_Farraige(Type_B)-64.html,+353(0)61411109,-10.30187899,51.92119192,Kerry,,Republic of Ireland,Self Catering Accommodation,679,Self Catering Accommodation_Kerry,5,Sect,52,"[5, 6, 5, 4, 5]"
Bunratty Haven,http://www.bunrattyhaven.com,+353(0)61708362,-8.830662,52.717226,Clare,Bunratty,Republic of Ireland,B&B,610,B&B_Clare,5,Sect,84,"[2, 4, 6, 5, 0]"
Coomassig View,http://coomassigview.kerry-ireland.com,+353(0)646675005,-9.911975,51.838594,Kerry,Sneem,Republic of Ireland,B&B,1007,B&B_Kerry,2,Zone,92,"[6, 6, 7]"
Deerpark Manor B&B,http://www.deerparkmanorbandb.com,+353(0)949251078,-8.943372,53.938154,Mayo,Swinford,Republic of Ireland,B&B,1182,B&B_Mayo,2,Lot,95,"[6, 5, 3, 3, 8]"
Mount Falcon Holiday Cottages,http://www.mountfalcon.com,+353(0)9674472,-9.1573403,54.0584778,Mayo,,Ireland,Self Catering Accommodation,673,Self Catering Accommodation_Mayo,3,Zone,62,"[7, 1, 1]"
Gaultier Lodge,http://www.gaultierlodge.com,+353(0)51382549,-6.983528117,52.1928433,Waterford,Waterford City,Republic of Ireland,"B&B,B&Bs,Historic House",778,"B&B,B&Bs,Historic House_Waterford",4,Div,74,"[1, 6]"
Eagle View,https://www.booking.com/hotel/ie/eagle-view-holiday-home.en-gb.html,+353(0)578732427,-6.8391333,52.9668551,Kildare,,Ireland,Self Catering Accommodation,904,Self Catering Accommodation_Kildare,5,Blk,31,"[5, 2, 5, 1]"
River Forest Hotel,http://www.riverforesthotel.com,+353(0)16245678,-6.486982,53.371044,Kildare,Leixlip,Republic of Ireland,Hotel,1157,Hotel_Kildare,5,Div,4,"[1, 0, 1]"
Castle Dargan Hotel,https://www.facebook.com/Castle-Dargan-Golf-Hotel-Wellness-351501684919348/,+353(0)719118080,-8.436796,54.19783,Sligo,Ballygawley,Republic of Ireland,Hotel,1017,Hotel_Sligo,5,Sect,40,"[4, 5]"
Farren Lee Holiday Cottages,http://www.facebook.com/www.leevalleygolf.cork/,+353(0)217331721,-8.700742,51.890291,Cork,Cork City,Republic of Ireland,Self Catering Accommodation,1060,Self Catering Accommodation_Cork,1,Lot,87,"[4, 1, 0, 7]"
Imeall na Mara (Seashore House),http://www.imeallnamara.com,+353(0)669155191,-10.373242,52.190496,Kerry,Dingle,Republic of Ireland,B&B,949,B&B_Kerry,2,Sect,14,"[2, 2, 3, 2, 2]"
An Grianan Hotel,http://www.angriananhotel.com,+353(0)749368900,-7.433732,55.038929,Donegal,Burt,Republic of Ireland,Hotel,850,Hotel_Donegal,3,Lot,55,"[7, 7, 9]"
Doonbeg The Links,http://www.trumphotels.com/ireland,+353(0)659055600,-9.499911,52.747618,Clare,Doonbeg,Republic of Ireland,Self Catering Accommodation,720,Self Catering Accommodation_Clare,1,Div,20,"[4, 3, 0]"
Fern Cottage,http://www.ferncottageDonegal.com,+353(0)749137222,-7.879876,54.972828,Donegal,Churchill,Republic of Ireland,Self Catering Accommodation,1119,Self Catering Accommodation_Donegal,2,Sect,43,"[2, 4, 1]"
Rossmore Manor,http://www.rossmoremanor.com,+353(0)749721500,-8.087843946,54.62285089,Donegal,,Republic of Ireland,B&B,1083,B&B_Donegal,1,Sect,15,"[8, 9, 0, 1]"
Beaufort Lodge,https://www.facebook.com/pg/Beaufort-Lodge-104487182923319/about/?section=hours&tab=page_info,+353(0)646624822,-9.633578,52.066896,Kerry,Beaufort,Republic of Ireland,B&B,615,B&B_Kerry,5,Lot,73,"[8, 5, 3, 5, 5]"
Pond House,http://www.bandbireland.com/accommodation/26886/pond-house,+353(0)214381630,-8.578268,51.954337,Cork,Blarney,Republic of Ireland,B&B,1029,B&B_Cork,1,Lot,81,"[5, 0, 6, 7, 2]"
The Ferris Wheel,http://m.facebook.com/Ferris-Wheel-Bed-Breakfast-Gap-of-Dunloe-Killarney-CoKerry-Ireland-1446096425633555/,+353(0)646644609,-9.631776,52.046012,Kerry,Beaufort,Republic of Ireland,B&B,650,B&B_Kerry,1,Sect,76,"[1, 8]"
Old Boley Country House,http://www.oldboleywexford.com,+353(0)539134553,-6.619649,52.345984,Wexford,Barntown,Republic of Ireland,Self Catering Accommodation,1044,Self Catering Accommodation_Wexford,1,Sect,70,"[5, 9, 0]"
Murphy's Hotel,http://www.murphyshotel.ie,+353(0)719185598,-8.731331,54.053297,Sligo,Tubbercurry,Republic of Ireland,Hotel,1096,Hotel_Sligo,1,Lot,24,"[8, 5]"
Currane Lodge,http://www.curranelodge.ie,+353(0)669474073,-10.142181,51.843299,Kerry,Waterville,Republic of Ireland,B&B,678,B&B_Kerry,3,Sect,53,"[7, 1]"
Doire Farm Cottages,http://www.facebook.com/Doire-Farm-Cottages-163779897007889/?fref=ts,+353(0)646685312,-9.491088145,51.90355772,Kerry,Kilgarvan,Republic of Ireland,Self Catering Accommodation,860,Self Catering Accommodation_Kerry,2,Lot,11,"[7, 8, 4, 2, 8]"
Ethan House B&B,http://www.booking.com/hotel/ie/ethan-house-b-amp-b.html,+353(0)238848795,-9.034592,51.576062,Cork,Rosscarbery,Republic of Ireland,B&B,674,B&B_Cork,5,Sect,38,"[6, 1, 6, 5]"
Kinnitty Castle Hotel,http://www.kinnittycastlehotel.com,3.53579E+11,-7.6975013,53.1026067,Offaly,Birr,Ireland,Hotel,940,Hotel_Offaly,2,Blk,51,"[7, 1, 7]"
Downings Coastguard Cottages,http://www.coastguardcottages.ie,+353(0)879589087,-7.819779669,55.19273561,Donegal,Rosapenna,Republic of Ireland,Self Catering Accommodation,1157,Self Catering Accommodation_Donegal,3,Sect,67,"[5, 1, 5, 5, 5]"
Rockhill Holiday Park,http://www.rockhill.ie/,+353(0)749150012,-7.671828,55.13738,Donegal,Kerrykeel,Republic of Ireland,Self Catering Accommodation,648,Self Catering Accommodation_Donegal,4,Div,10,"[6, 2, 5]"
Summer Hill,http://www.summer-hill.com/,+353(0)2770417,-9.919640674,51.64659241,Cork,Castletownbere,Republic of Ireland,B&B,838,B&B_Cork,4,Zone,81,"[6, 7, 8, 7]"
Ocean Breeze,http://www.oceanbreezedonegal.com,+353(0)749723827,-8.119464,54.643835,Donegal,Donegal Town,Republic of Ireland,B&B,1184,B&B_Donegal,4,Div,46,"[8, 2, 2, 5, 4]"
Loughdan House,http://www.loughdanhouse.com,+353(0)12817027,-6.289260119,53.06687021,Wicklow,Roundwood,Republic of Ireland,B&B,780,B&B_Wicklow,2,Div,88,"[0, 1, 7, 8]"
Feerick's Hotel,https://www.feerickshotel.com,3.53437E+11,-7.5212561,53.6570369,Westmeath,Rathowen,Ireland,Hotel,679,Hotel_Westmeath,3,Blk,53,"[3, 5, 4]"
Shearwater Hotel,https://facebook.com/MaldronHotels,+353(0)909630400,-8.219521236,53.32646218,Galway,Ballinasloe,Republic of Ireland,Hotel,893,Hotel_Galway,5,Lot,55,"[5, 8]"
Deebert House Hotel,http://www.deeberthousehotel.com,+353(0)6331200,-8.570646,52.400813,Limerick,Kilmallock,Republic of Ireland,Hotel,905,Hotel_Limerick,5,Div,69,"[8, 6, 8, 2]"
Jacob's Well Hotel,http://www.jacobswellrathdrum.com,+353(0)40446620,-6.230793,52.932588,Wicklow,Rathdrum,Republic of Ireland,Hotel,998,Hotel_Wicklow,4,Zone,82,"[1, 9]"
Ashford Cottages,http://ashfordselfcatering.com/,+353(0)40440831,-6.103141,53.00147,Wicklow,Ashford,Republic of Ireland,Self Catering Accommodation,788,Self Catering Accommodation_Wicklow,4,Sect,16,"[2, 8, 3, 5]"
12 Monterey Court,http://www.12montereycourt.com,+353(0)868424004,-9.073866,53.261041,Galway,Salthill,Republic of Ireland,Self Catering Accommodation,1174,Self Catering Accommodation_Galway,5,Zone,51,"[0, 2]"
Sleepzone,https://www.facebook.com/sleepzone,+353(0)91566999,-9.05057,53.276675,Galway,Galway City,Republic of Ireland,Hostel,913,Hostel_Galway,4,Lot,3,"[5, 0]"
Doolin Riverside Caravan and Camping Park,http://www.campingdoolin.com/,+353(0)852819888,-9.380126349,53.01636573,Clare,Doolin,Republic of Ireland,Camping,772,Camping_Clare,5,Blk,47,"[5, 3]"
Castle Hostel,http://www.castlehostel.ie,+353(0)667125167,-9.701499,52.269062,Kerry,Tralee,Republic of Ireland,Hostel,1177,Hostel_Kerry,1,Blk,81,"[6, 9, 8, 2]"
Atlantic View Cottages,http://www.atlanticviewcottages.com,+353(0)656828282,-9.357362,53.011372,Clare,Doolin,Republic of Ireland,Self Catering Accommodation,1155,Self Catering Accommodation_Clare,2,Sect,86,"[6, 5, 7, 1]"
Number 2 Glenvale Cottage,,+353(0)949026090,-9.977266,54.005479,Mayo,,Republic of Ireland,Self Catering Accommodation,899,Self Catering Accommodation_Mayo,1,Div,29,"[8, 8, 0]"
Loop Head Lightkeeper's Cottage,http://www.irishlandmark.com,+353(0)16704733,-9.932304847,52.56078482,Clare,Loop Head,Republic of Ireland,"Self Catering Accommodation,Welcome Standard",614,"Self Catering Accommodation,Welcome Standard_Clare",1,Lot,39,"[2, 1, 0]"
Portbeg Holiday Homes at Donegal Bay,http://www.portbegholidayhomes.com,+353(0)719829952,-8.302093,54.477521,Donegal,Bundoran,Republic of Ireland,Self Catering Accommodation,958,Self Catering Accommodation_Donegal,3,Div,55,"[6, 5, 3, 7]"
Eagle's Nest Bed & Breakfast,http://www.eaglesnest-BB.com,+353(0)749544893,-8.337178,54.844738,Donegal,Lettermacaward,Republic of Ireland,B&B,933,B&B_Donegal,2,Div,40,"[9, 3, 2, 4]"
Kilians Lodge Hotel,http://www.kilianslodge.com/index.php,3.53469E+11,-6.945492,53.811375,Cavan,Mullagh,Republic of Ireland,Hotel,689,Hotel_Cavan,3,Lot,18,"[4, 8, 0, 5]"
Cow House Studios,http://www.cowhousestudios.com,+353(0)539169567,-6.810732493,52.50468525,Wexford,Rathnure,Republic of Ireland,"B&B,Welcome Standard",981,"B&B,Welcome Standard_Wexford",3,Lot,31,"[2, 6, 8]"
Ballymacarbry Hostel,http://www.ballymacarbry.com,+353(0)526185483,-7.710547,52.266575,Waterford,,Republic of Ireland,"Hostel,Welcome Standard",1105,"Hostel,Welcome Standard_Waterford",4,Div,41,"[0, 0, 4, 6]"
The Old Imperial Hotel,http://www.theoldimperialhotel.com,+353(0)2492435,-7.850104,51.955522,Cork,Youghal,Republic of Ireland,Hotel,663,Hotel_Cork,5,Div,52,"[3, 8, 0]"
Killarney House (Tralee),http://www.killarneyhousetralee.com,+353(0)667196989,-9.737669,52.283042,Kerry,Tralee,Republic of Ireland,B&B,1034,B&B_Kerry,5,Blk,92,"[1, 9]"
2 Millfield House,http://www.kenmare-selfcatering.com,+353(0)646685602,-9.598536,51.88282,Kerry,Kenmare,Republic of Ireland,Self Catering Accommodation,684,Self Catering Accommodation_Kerry,2,Lot,54,"[1, 3, 9]"
Adare Farm Cottage,http://www.adarefarmcottage.com,+353(0)61396223,-8.801211,52.552666,Limerick,Adare,Republic of Ireland,Self Catering Accommodation,1050,Self Catering Accommodation_Limerick,2,Sect,39,"[2, 2, 0, 7]"
Viking House Hotel,http://www.vikinghousehotel.com,+353(0)749543295,-8.385586374,55.0226657,Donegal,Kincasslagh,Republic of Ireland,Hotel,851,Hotel_Donegal,4,Sect,66,"[2, 3]"
Step House,http://www.stephousehotel.ie/index.html,+353(0)599773209,-6.927435,52.601208,Carlow,Borris,Republic of Ireland,Hotel,603,Hotel_Carlow,1,Blk,77,"[6, 7, 2, 3]"
Bolands,http://www.bolandsdingle.ie,+353(0)669151426,-10.273092,52.143677,Kerry,Dingle,Republic of Ireland,B&B,1180,B&B_Kerry,3,Zone,43,"[0, 7, 5]"
Valley Lodge Farm Hostel,http://www.valleylodgeaccommodation.com/hostel.htm,+353(0)949365180,-9.058048,53.784251,Mayo,Claremorris,Republic of Ireland,Hostel,699,Hostel_Mayo,3,Lot,49,"[9, 1, 9]"
Strandhill Lodge and Suites,http://www.strandhilllodgeandsuites.com,+353(0)719122122,-8.596103448,54.26706519,Sligo,Strandhill,Republic of Ireland,Hotel,958,Hotel_Sligo,1,Lot,22,"[2, 6, 7, 3]"
Michaeleen's Manor B&B,http://www.michaeleensmanor.com/,3.5395E+11,-9.270113,53.539006,Mayo,,Ireland,B&B,709,B&B_Mayo,4,Blk,86,"[8, 1, 0]"
The Red Door Country House,https://www.facebook.com/TheRedDoorFahan/,+353(0)749360289,-7.46643255,55.08503208,Donegal,Fahan,Ireland,"B&B,Welcome Standard",1160,"B&B,Welcome Standard_Donegal",2,Zone,86,"[9, 5, 1, 5]"
Newtown Farm Country House,http://www.newtownfarm.com,+353(0)2494143,-7.725015,51.996701,Waterford,Ardmore,Ireland,B&B,1043,B&B_Waterford,1,Lot,18,"[8, 6, 3]"
Hillview,http://www.hillviewbray.com,+353(0)12877226,-6.09384331,53.17329616,Wicklow,Bray,Ireland,B&B,1083,B&B_Wicklow,4,Zone,35,"[6, 6, 3, 5]"
Audley House,http://www.audleyhousecork.com,+353(0)214274292,-8.48789,51.895745,Cork,Western Road,Ireland,B&B,859,B&B_Cork,1,Sect,27,"[4, 3]"
Muckno Lodge,http://www.mucknolodge.ie,+353(0)879531435,-6.684661948,54.09270475,Monaghan,Toome,Ireland,Self Catering Accommodation,880,Self Catering Accommodation_Monaghan,4,Zone,92,"[9, 9, 4, 6]"
Arranmore Holiday Village,https://arranmoreisland.ie/,+353(0)749520533,-8.502960346,54.98019118,Donegal,,Ireland,Self Catering Accommodation,981,Self Catering Accommodation_Donegal,1,Blk,7,"[4, 6]"
Riverside Cottage,http://www.riversidecottagedoolin.com,+353(0)657074049,-9.383450559,53.01317823,Clare,Doolin,Ireland,B&B,1071,B&B_Clare,3,Blk,21,"[9, 4, 9, 9]"
Orchid House,http://www.orchidhouse.net,+353(0)657076975,-9.2991272,53.09953647,Clare,Fanore,Ireland,B&B,1109,B&B_Clare,5,Zone,32,"[0, 3, 7, 5]"
Lough Bawn House,https://www.facebook.com/Loughbawn-House-BB-189640781135975/?fref=ts,3.5345E+11,-7.21216,53.6474715,Westmeath,Collinstown,Ireland,B&B,610,B&B_Westmeath,2,Zone,56,"[8, 0, 8, 3, 8]"
Sea Mist,,+353(0)877757985,-9.334084104,53.2447157,Galway,Spiddal,Ireland,B&B,998,B&B_Galway,4,Sect,25,"[4, 0, 1, 5]"
Fáilte B&B,http://www.paxad.ie/failtebandb,+353(0)9826005,-9.3191882,53.8449215,Mayo,,Ireland,B&B,665,B&B_Mayo,4,Blk,54,"[5, 1, 5, 0]"
Westport Country Lodge Hotel,http://www.westportcountrylodge.ie/,+353(0)9856030,-9.464491903,53.78452122,Mayo,Westport,Ireland,Hotel,773,Hotel_Mayo,5,Zone,74,"[4, 6]"
Go Explore Hostel & Sailor's Bar,http://www.goexplorehostel.ie/hostel-accommodation-mayo/,+353(0)874108706,-9.95301,53.80156,Mayo,Clare Island,Ireland,Hostel,1098,Hostel_Mayo,1,Lot,83,"[9, 8, 3, 7]"
Horetown House,http://www.horetownhouse.ie,+353(0)51565633,-6.721558084,52.31636492,Wexford,,Ireland,Hotel,750,Hotel_Wexford,4,Zone,10,"[8, 3]"
Dromquinna Manor,https://www.facebook.com/pages/Dromquinna-Manor/165717870152060?ref=br_tf,+353(0)646642888,-9.643829843,51.87149517,Kerry,Kenmare,Ireland,Hotel,1078,Hotel_Kerry,5,Zone,14,"[9, 7, 9, 0, 1]"
Teac Chondai Thatch cottage,http://www.teacchondai.com,+353(0)851003321,-8.287859836,54.99923292,Donegal,Annagry,Ireland,Self Catering Accommodation,878,Self Catering Accommodation_Donegal,4,Zone,10,"[5, 1, 7, 0]"
The Connemara Hostel (Sleepzone),https://www.sleepzone.ie/the-connemara-hostel,+353(0)9542929,-9.778019051,53.59396552,Galway,Leenane,Ireland,Hostel,739,Hostel_Galway,1,Div,91,"[1, 4, 8, 5, 7]"
Atlantic 'N' Riverside,http://www.easkeybandb.com,+353(0)9649837,-8.960796,54.286351,Sligo,Easkey,Ireland,B&B,800,B&B_Sligo,5,Div,65,"[9, 4, 9, 5]"
Shady Hollow B&B,http://www.hollowaytravel.com,+353(0)2979194,-9.05698,52.12311,Cork,Mallow,Ireland,B&B,918,B&B_Cork,1,Sect,53,"[7, 1, 6, 8, 1]"
Beach Haven,http://www.beachhavenhouse.com,+353(0)51390208,-7.145,52.166,Waterford,Tramore,Ireland,B&B,1059,B&B_Waterford,3,Blk,79,"[1, 8, 7, 1, 7]"
Southbeach Apartments,http://www.southbeachholidayapartments.com,+353(0)851610179,-6.38955832,52.27807046,Wexford,Rosslare Strand,Ireland,Self Catering Accommodation,964,Self Catering Accommodation_Wexford,3,Lot,59,"[5, 9]"
Ballyliffin Townhouse Hotel,http://www.ballyliffintownhouse.ie,+353(0)749378300,-7.394942992,55.27759661,Donegal,Ballyliffin,Ireland,Hotel,1160,Hotel_Donegal,3,Div,24,"[1, 4]"
Robin Hill,https://www.facebook.com/robinhillcobh/,+353(0)214812222,-8.31149,51.84823,Cork,Rushbrooke,Ireland,B&B,1121,B&B_Cork,3,Zone,51,"[0, 4, 2]"
Newlands Lodge,http://www.newlandslodge.com,+353(0)567729862,-7.26364,52.59256,Kilkenny,Kilkenny City,Ireland,B&B,1052,B&B_Kilkenny,1,Sect,70,"[2, 0]"
Castle Ivy Lodge,http://www.myinfo.ie/Cashel-Ivy-Lodge-Self-Catering/,+353(0)6252500,-7.8884098,52.5197642,Tipperary,Cashel,Ireland,Self Catering Accommodation,962,Self Catering Accommodation_Tipperary,3,Div,4,"[9, 3, 8, 4, 9]"
Oscars Hostel,http://www.oscarshostel.com,+353(0)212418380,-8.454674993,51.90268816,Cork,Cork City,Ireland,Hostel,774,Hostel_Cork,5,Blk,61,"[2, 7]"
Dunmore East Holiday Park,http://www.dunmoreholiday.ie/,+353(0)877022566,-6.992148881,52.15923309,Waterford,Dunmore East,Ireland,Camping,847,Camping_Waterford,3,Sect,50,"[8, 4]"
Osborne's Storehouse,http://osborne-storehouse.com,+353(0)599771722,-6.832566967,52.60112574,Carlow,Borris,Ireland,"Self Catering Accommodation,Welcome Standard",671,"Self Catering Accommodation,Welcome Standard_Carlow",2,Sect,7,"[4, 7, 0]"
Silver Line Cruisers,https://silverlinecruisers.com/,+353(0)579151112,-7.990115919,53.19385191,Offaly,Banagher,Ireland,"Self Catering Accommodation,Welcome Standard,Activity Holiday Accommodation",824,"Self Catering Accommodation,Welcome Standard,Activity Holiday Accommodation_Offaly",5,Zone,27,"[7, 8, 9, 7, 5]"
Upperchurch Self Catering Cottage & Spa,,+353(0)876626028,-8.038722329,52.70311331,Tipperary,Upperchurch,Ireland,Self Catering Accommodation,1156,Self Catering Accommodation_Tipperary,1,Lot,45,"[3, 8, 3]"
Galway City Hostel,http://www.galwaycityhostel.com,+353(0)91535878,-9.047670189,53.27421649,Galway,Eyre Square,Ireland,Hostel,855,Hostel_Galway,3,Lot,34,"[0, 3, 2, 4]"
The Cosy Cottage,http://www.thecosycottage.com,+353(0)749385740,-7.039126242,55.18922715,Donegal,Moville,Ireland,"B&B,Welcome Standard",668,"B&B,Welcome Standard_Donegal",3,Lot,29,"[7, 4, 1, 5]"
Cara House,http://www.carabedandbreakfast.com/,+353(0)949388315,-8.919554213,53.79408506,Mayo,Knock,Ireland,"B&B,Welcome Standard",991,"B&B,Welcome Standard_Mayo",3,Blk,65,"[8, 7]"
The Fanad Lodge,https://www.facebook.com/fanadlodge.fanadlodge/,+353(0)749159057,-7.702445508,55.24466487,Donegal,Letterkenny,Ireland,"B&B,Welcome Standard",1178,"B&B,Welcome Standard_Donegal",5,Sect,41,"[2, 0]"
Glenmalure,https://anoige.ie/glenmalure-youth-hostel/,+353(0)18304555,-6.421903749,52.99158641,Wicklow,Glenmalure,Ireland,"Hostel,Welcome Standard",1121,"Hostel,Welcome Standard_Wicklow",3,Div,50,"[0, 9, 1]"
Inisean B&B,http://www.iniseanbandb.com,+353(0)749521455,-8.369871616,54.95346595,Donegal,Dungloe,Ireland,B&B,764,B&B_Donegal,5,Zone,80,"[5, 2, 8, 1]"
Hazelwood Lodge,http://www.hazelwoodlodge.ie/,+353(0)657077092,-9.155771037,53.10608224,Clare,Ballyvaughan,Ireland,"B&B,Welcome Standard",872,"B&B,Welcome Standard_Clare",1,Zone,10,"[7, 6, 8, 4, 2]"
The Gateway Lodge,http://www.thegatewaydonegal.com,+353(0)749740405,-8.115003299,54.65626131,Donegal,,Ireland,"B&B,Welcome Standard",919,"B&B,Welcome Standard_Donegal",4,Blk,36,"[9, 4]"
Nox Hotel,http://www.noxhotelgalway.ie,+353(0)91735555,-9.042277664,53.28668118,Galway,Headford Road,Ireland,Hotel,748,Hotel_Galway,3,Lot,8,"[3, 9, 8, 3, 4]"
O'Briens' Cashel Lodge,http://www.cashel-lodge.com,+353(0)6261003,-7.896397244,52.52023019,Tipperary,Cashel,Ireland,"B&B,Welcome Standard",761,"B&B,Welcome Standard_Tipperary",2,Lot,92,"[2, 0, 2, 5, 1]"
The Upton Court Hotel,http://www.seanogs.ie,+353(0)539130128,-6.280333926,52.51736205,Wexford,Kilmuckridge,Ireland,Hotel,742,Hotel_Wexford,2,Lot,19,"[9, 0, 0]"
Duncannon Beach Holiday Park,http://www.duncannonholidaypark.com,+353(0)51389707,-6.919068515,52.2184451,Wexford,Duncannon,Ireland,"Camping,Welcome Standard",1197,"Camping,Welcome Standard_Wexford",4,Zone,82,"[0, 0, 1]"
Racey Byrne's B&B,http://www.facebook.com/raceybyrnes/,+353(0)599131790,-6.92578722,52.83614658,Carlow,,Ireland,"B&B,Welcome Standard",1048,"B&B,Welcome Standard_Carlow",4,Blk,19,"[8, 1]"
Ardboula House,http://ardboula.com/,3.53862E+11,-8.774839057,52.89454154,Clare,Tulla,Ireland,"Self Catering Accommodation,Welcome Standard",1105,"Self Catering Accommodation,Welcome Standard_Clare",4,Blk,33,"[7, 6, 6, 3]"
Valentia Island Caravan & Camping,http://www.valentiaislandcamping.com,+353(0)879673673,-10.29245449,51.92390223,Kerry,Knightstown,Ireland,"Camping,Welcome Standard",1090,"Camping,Welcome Standard_Kerry",1,Zone,61,"[0, 1, 8, 0, 1]"
Diamond Hill Country House,http://www.diamondhill.ie,+353(0)860658631,-7.079989712,52.27737372,Waterford,Waterford City,Ireland,"B&B,Welcome Standard",1176,"B&B,Welcome Standard_Waterford",3,Zone,83,"[0, 1]"
The Ritz,http://www.theritz-killybegs.com/,+353(0)749731309,-8.441092166,54.6369956,Donegal,Killybegs,Ireland,"Hostel,Welcome Standard",663,"Hostel,Welcome Standard_Donegal",5,Lot,18,"[6, 0, 9, 0]"
The Mill Restaurant & Accommodation,https://www.themilldunfanaghy.com/,3.53749E+11,-7.9795346,55.1767293,Donegal,Dunfanaghy,Ireland,"B&B,Welcome Standard",1129,"B&B,Welcome Standard_Donegal",1,Lot,22,"[8, 5, 4, 1]"
Tir na hÓige,http://easkey.ie/CaravanPark.html,+353(0)9649052,-8.96172547,54.28572494,Sligo,Easkey,Ireland,"Camping,Welcome Standard",640,"Camping,Welcome Standard_Sligo",3,Sect,88,"[8, 3]"
Boyles' Caravans and Camping Ground,http://boylescaravans.com/index.html,3.53838E+11,-8.44554812,54.83910894,Donegal,Portnoo,Ireland,"Camping,Welcome Standard",885,"Camping,Welcome Standard_Donegal",3,Sect,32,"[7, 6]"
Huntington Castle,http://www.huntingtoncastle.com,+353(0)539377160,-6.649045974,52.6903993,Carlow,Clonegal,Ireland,"B&B,Welcome Standard",957,"B&B,Welcome Standard_Carlow",5,Zone,21,"[0, 1]"
Barrons Café and Bed & Breakfast,http://www.barronsmoville.com/,+353(0)749382472,-7.041861243,55.1882175,Donegal,Moville,Ireland,"B&B,Welcome Standard",815,"B&B,Welcome Standard_Donegal",2,Sect,74,"[6, 1]"
The Glenmalure Lodge,http://www.glenmalurelodge.ie,+353(0)40446188,-6.353519902,52.95769549,Wicklow,Glenmalure,Ireland,"B&B,Welcome Standard",687,"B&B,Welcome Standard_Wicklow",3,Blk,10,"[1, 9, 7, 3]"
Travellers' Rest Hostel,http://www.hostelcaherdaniel.com,+353(0)669475175,-10.09793617,51.76775764,Kerry,,Ireland,"Hostel,Welcome Standard",715,"Hostel,Welcome Standard_Kerry",4,Sect,86,"[0, 0, 5]"
Wilton Castle,http://www.wiltoncastleireland.com,+353(0)539247738,-6.612060247,52.45896009,Wexford,Enniscorthy,Ireland,"B&B,Welcome Standard",1095,"B&B,Welcome Standard_Wexford",1,Sect,87,"[6, 3]"
Riverside,http://riversidelaragh.com,+353(0)40445840,-6.298781782,53.00376379,Wicklow,Glendalough,Ireland,"B&B,Welcome Standard",791,"B&B,Welcome Standard_Wicklow",5,Sect,85,"[5, 5]"
Copperfield House,http://www.copperfieldhouse.ie,+353(0)6261075,-7.89092549,52.51439158,Tipperary,Cashel,Ireland,B&B,786,B&B_Tipperary,5,Sect,30,"[1, 5, 8, 2]"
Hookless Holiday Homes,http://hooklessholidayhomes.com,+353(0)51441130,-6.881657064,52.16369404,Wexford,New Ross,Ireland,Self Catering Accommodation,1154,Self Catering Accommodation_Wexford,4,Zone,12,"[7, 4, 8, 9, 2]"
Curraghchase Caravan & Campsite,http://www.curraghchasecaravanpark.ie,+353(0)61396349,-8.880201,52.618176,Limerick,Kilcornan,Ireland,"Camping,Welcome Standard",686,"Camping,Welcome Standard_Limerick",4,Zone,43,"[0, 1, 0, 3, 9]"
Crew's Restaurant & Accommodation,http://www.crews.ie,+353(0)5823422,-7.61718789,52.08868823,Waterford,Dungarvan,Ireland,"Self Catering Accommodation,Welcome Standard",1150,"Self Catering Accommodation,Welcome Standard_Waterford",4,Lot,34,"[6, 0, 5, 3]"
Claddagh Cottages,http://www.claddaghcottages.ie/,+353(0)863554902,-7.761761003,52.01630362,Waterford,Clashmore,Ireland,"Self Catering Accommodation,Welcome Standard",1153,"Self Catering Accommodation,Welcome Standard_Waterford",4,Lot,95,"[2, 2, 9]"
Talbot Suites at Stonebridge,https://talbotsuites.ie,+353(0)539122566,-6.45763229,52.33668299,Wexford,,Ireland,Self Catering Accommodation,959,Self Catering Accommodation_Wexford,5,Div,63,"[4, 0, 7, 4]"
The Royal Cork Yacht Club,http://royalcork.com,+353(0)214831023,-8.303805711,51.80436182,Cork,Crosshaven,Ireland,"Self Catering Accommodation,Welcome Standard",699,"Self Catering Accommodation,Welcome Standard_Cork",3,Sect,94,"[6, 1, 5]"
Croan Cottages,http://croancottages.com,+353(0)567766868,-7.271369872,52.47464308,Kilkenny,,Ireland,Self Catering Accommodation,693,Self Catering Accommodation_Kilkenny,3,Sect,75,"[4, 0, 2, 0, 5]"
Kilrush Marina,http://kilrushmarina.ie/,+353(0)659052072,-9.495003237,52.63499023,Clare,Kilrush,Ireland,"Self Catering Accommodation,Welcome Standard,Activity Holiday Accommodation",771,"Self Catering Accommodation,Welcome Standard,Activity Holiday Accommodation_Clare",4,Blk,71,"[1, 6, 1]"
Termon House - Irish Landmark Trust,http://www.irishlandmark.com/property/termon_house/,+353(0)16704733,-8.451320915,54.93504732,Donegal,Dungloe,Ireland,"Self Catering Accommodation,Welcome Standard",947,"Self Catering Accommodation,Welcome Standard_Donegal",1,Lot,12,"[9, 0, 2]"
Aldridge Lodge,http://www.aldridgelodge.com,+353(0)51389116,-6.909463008,52.21617335,Wexford,Duncannon,Ireland,"B&B,Welcome Standard",692,"B&B,Welcome Standard_Wexford",5,Div,7,"[5, 2, 9]"
Batty Langley Lodge - Irish Landmark Trust,http://irishlandmark.com/property/batty-langley-lodge/,+353(0)16704733,-6.51702276,53.34690956,Kildare,Leixlip,Ireland,"Self Catering Accommodation,Welcome Standard",873,"Self Catering Accommodation,Welcome Standard_Kildare",4,Zone,5,"[9, 5]"
Galley Head Lightkeeper's Cottages - Irish Landmark Trust,http://irishlandmark.com/property/galley-head-lightkeepers-house-1-2/,+353(0)16704733,-8.952414509,51.52967869,Cork,Castlefreke,Ireland,"Self Catering Accommodation,Welcome Standard",669,"Self Catering Accommodation,Welcome Standard_Cork",4,Div,59,"[1, 1]"
St. Johns Point Lightkeeper's Cottages - Irish Landmark Trust,http://www.irishlandmark.com/property/sj-schooner/,+353(0)16704733,-8.459710746,54.56933786,Donegal,Dunkineely,Ireland,"Self Catering Accommodation,Welcome Standard",924,"Self Catering Accommodation,Welcome Standard_Donegal",2,Lot,20,"[3, 6, 3]"
Castletown Roundhouse & Gatehouse,http://www.irishlandmark.com/view-properties/?prop1=1808&prop2=1300&searchText=Castletown%20Properties,+353(0)16704733,-6.537221315,53.34148865,Kildare,Celbridge,Ireland,"Self Catering Accommodation,Welcome Standard",612,"Self Catering Accommodation,Welcome Standard_Kildare",2,Blk,98,"[2, 2, 2, 3]"
Kilmore Quay Marina,http://kilmorequaymarina.com/,+353(0)539129955,-6.58943885,52.17218276,Wexford,Kilmore Quay,Ireland,"Self Catering Accommodation,Welcome Standard",1026,"Self Catering Accommodation,Welcome Standard_Wexford",3,Blk,14,"[2, 2, 9, 6, 1]"
Achill Seal Caves Caravan & Camping,http://achillsealcaves.com,+353(0)873536379,-10.02352193,54.0098465,Mayo,,Ireland,"Camping,Welcome Standard",633,"Camping,Welcome Standard_Mayo",4,Lot,94,"[1, 1, 4, 6, 1]"
Mulhollow B&B,http://marikilbane.wixsite.com/achillislandseaweed,3.53877E+11,-10.04513313,53.9776597,Mayo,,Ireland,"B&B,Welcome Standard,Activity Holiday Accommodation",717,"B&B,Welcome Standard,Activity Holiday Accommodation_Mayo",4,Sect,67,"[1, 7, 0, 4, 6]"
Annes Grove,http://irishlandmark.com,+353(0)16704733,-8.472440006,52.19523845,Cork,Castletownroche,Ireland,"Self Catering Accommodation,Welcome Standard",704,"Self Catering Accommodation,Welcome Standard_Cork",4,Zone,11,"[6, 6, 6]"
The Red Cottage & Stables,http://redcottagesligo.com,+353(0)877837619,-8.473312,54.293448,Sligo,,Ireland,"B&B,Welcome Standard",1099,"B&B,Welcome Standard_Sligo",5,Zone,6,"[7, 7, 3]"
Boolakennedy Self Catering Luxury Farm Cottages,http://boolakennedy.irish,+353(0)868388848,-8.056943382,52.33738035,Tipperary,Cahir,Ireland,"Self Catering Accommodation,Welcome Standard",632,"Self Catering Accommodation,Welcome Standard_Tipperary",5,Blk,40,"[9, 8, 7, 7]"
Barrow House,http://barrowhouse.ie,+353(0)892463342,-9.853508412,52.29924711,Kerry,Ardfert,Ireland,"B&B,Welcome Standard",857,"B&B,Welcome Standard_Kerry",4,Div,34,"[2, 7, 1, 3, 9]"
Bluebell Cottage Tipperary,http://airbnb.ie/rooms/18887511,+353(0)851218219,-8.019568342,52.77536175,Tipperary,Borrisoleigh,Ireland,Self Catering Accommodation,955,Self Catering Accommodation_Tipperary,2,Lot,32,"[8, 4, 2]"
Ash Lodge,,+353(0)862314240,-8.26447244,54.08614654,Sligo,Geevagh,Ireland,Self Catering Accommodation,910,Self Catering Accommodation_Sligo,3,Blk,53,"[5, 4]"
Travelodge Castletroy,http://www.travelodge.ie/hotels/406/Limerick-Castletroy-hotel?rooms%5B0%5D%5BroomId%5D=n33b9hh79hxku0&rooms%5B0%5D%5Badults%5D=1&rooms%5B0%5D%5Bchildren%5D=0&rooms%5B0%5D%5Bextras%5D%5B0%5D=&lozenges=&strikeThroughShown=0,+353(0)61603500,-8.585062505,52.66458296,Limerick,Castletroy,Ireland,Hotel,1009,Hotel_Limerick,3,Sect,13,"[0, 2, 0, 3]"
Murphy's Hotel,http://murphys-hotel.ie,+353(0)40238109,-6.464082557,52.79959993,Wicklow,Tinahely,Ireland,Hotel,1082,Hotel_Wicklow,4,Blk,13,"[1, 6, 0, 5, 9]"
Seafort Luxury Hideaway,http://seafort.ie,+353(0)2751748,-9.443307313,51.69283756,Cork,Bantry,Ireland,"B&B,Welcome Standard",836,"B&B,Welcome Standard_Cork",5,Lot,69,"[1, 5, 2]"
